{
"type": "FeatureCollection",
"name": "stops_with_bus_lines2",
"crs": { "type": "name", "properties": { "name": "urn:ogc:def:crs:OGC:1.3:CRS84" } },
"features": [
{ "type": "Feature", "properties": { "stop_name": "Flakk ferjekai", "stop_desc": null, "wheelchair_boarding": null, "vehicle_type": 1000, "bus_lines": "880" }, "geometry": { "type": "Point", "coordinates": [ 10.201632, 63.451164 ] } },
{ "type": "Feature", "properties": { "stop_name": "Moanes", "stop_desc": null, "wheelchair_boarding": null, "vehicle_type": 700, "bus_lines": "670" }, "geometry": { "type": "Point", "coordinates": [ 11.055481, 63.46665 ] } },
{ "type": "Feature", "properties": { "stop_name": "Olav Tryggvasons gate", "stop_desc": null, "wheelchair_boarding": null, "vehicle_type": 700, "bus_lines": "1, 10, 12, 2, 20, 21, 22, 23, 25, 54, 70, 71, 75, 76, 79" }, "geometry": { "type": "Point", "coordinates": [ 10.397798, 63.433292 ] } },
{ "type": "Feature", "properties": { "stop_name": "Gluggbekken", "stop_desc": null, "wheelchair_boarding": null, "vehicle_type": 700, "bus_lines": "7710, 7711" }, "geometry": { "type": "Point", "coordinates": [ 11.027001, 63.463053 ] } },
{ "type": "Feature", "properties": { "stop_name": "Øyanvegen", "stop_desc": null, "wheelchair_boarding": null, "vehicle_type": 700, "bus_lines": "670" }, "geometry": { "type": "Point", "coordinates": [ 10.943361, 63.466585 ] } },
{ "type": "Feature", "properties": { "stop_name": "Vold", "stop_desc": null, "wheelchair_boarding": null, "vehicle_type": 700, "bus_lines": "7710, 7711" }, "geometry": { "type": "Point", "coordinates": [ 11.021921, 63.46286 ] } },
{ "type": "Feature", "properties": { "stop_name": "Tråsåvika Camping", "stop_desc": null, "wheelchair_boarding": null, "vehicle_type": 700, "bus_lines": "410, 5107" }, "geometry": { "type": "Point", "coordinates": [ 9.961612, 63.346233 ] } },
{ "type": "Feature", "properties": { "stop_name": "Klettkrysset", "stop_desc": "Ligger i retning mot Orkanger", "wheelchair_boarding": null, "vehicle_type": 700, "bus_lines": "310, 340, 410, 4101, 420, 470, 5004" }, "geometry": { "type": "Point", "coordinates": [ 10.300629, 63.323516 ] } },
{ "type": "Feature", "properties": { "stop_name": "Klettkrysset", "stop_desc": "Ligger i E39 retning fra Orkanger mot Trondheim", "wheelchair_boarding": null, "vehicle_type": 700, "bus_lines": "310, 340, 410, 420, 470, 5004" }, "geometry": { "type": "Point", "coordinates": [ 10.301244, 63.323193 ] } },
{ "type": "Feature", "properties": { "stop_name": "Klettkrysset", "stop_desc": "Ligger i retning fra Melhus mot Trondheim", "wheelchair_boarding": null, "vehicle_type": 700, "bus_lines": "216, 340, 440, 480, 71, 77" }, "geometry": { "type": "Point", "coordinates": [ 10.302161, 63.322463 ] } },
{ "type": "Feature", "properties": { "stop_name": "Klettkrysset", "stop_desc": "Ligger i retning mot Melhus", "wheelchair_boarding": null, "vehicle_type": 700, "bus_lines": "110, 216, 340, 440, 480, 71, 77" }, "geometry": { "type": "Point", "coordinates": [ 10.301544, 63.322136 ] } },
{ "type": "Feature", "properties": { "stop_name": "Stjørdal stasjon", "stop_desc": null, "wheelchair_boarding": null, "vehicle_type": 700, "bus_lines": "116, 311, 430, 670, 70, 7425, 7701, 7702, 7703, 7705, 7706, 7707, 7710, 7711, 90, 91, 92" }, "geometry": { "type": "Point", "coordinates": [ 10.913737, 63.469718 ] } },
{ "type": "Feature", "properties": { "stop_name": "Øverbylykkja", "stop_desc": null, "wheelchair_boarding": null, "vehicle_type": 700, "bus_lines": "75" }, "geometry": { "type": "Point", "coordinates": [ 10.172691, 63.430251 ] } },
{ "type": "Feature", "properties": { "stop_name": "Øverbylykkja", "stop_desc": null, "wheelchair_boarding": null, "vehicle_type": 700, "bus_lines": "208, 75" }, "geometry": { "type": "Point", "coordinates": [ 10.173184, 63.430284 ] } },
{ "type": "Feature", "properties": { "stop_name": "Brekkåsen skole", "stop_desc": null, "wheelchair_boarding": null, "vehicle_type": 700, "bus_lines": "5009" }, "geometry": { "type": "Point", "coordinates": [ 10.231568, 63.269736 ] } },
{ "type": "Feature", "properties": { "stop_name": "Brokalykkja", "stop_desc": null, "wheelchair_boarding": null, "vehicle_type": 700, "bus_lines": "5010" }, "geometry": { "type": "Point", "coordinates": [ 10.179109, 63.157989 ] } },
{ "type": "Feature", "properties": { "stop_name": "Brokalykkja", "stop_desc": null, "wheelchair_boarding": null, "vehicle_type": 700, "bus_lines": "5010" }, "geometry": { "type": "Point", "coordinates": [ 10.17934, 63.157972 ] } },
{ "type": "Feature", "properties": { "stop_name": "Holemsgjerdet", "stop_desc": null, "wheelchair_boarding": null, "vehicle_type": 700, "bus_lines": "5009" }, "geometry": { "type": "Point", "coordinates": [ 10.224473, 63.262279 ] } },
{ "type": "Feature", "properties": { "stop_name": "Hollum vegkryss", "stop_desc": null, "wheelchair_boarding": null, "vehicle_type": 700, "bus_lines": "5009" }, "geometry": { "type": "Point", "coordinates": [ 10.228577, 63.262211 ] } },
{ "type": "Feature", "properties": { "stop_name": "Hollum vegkryss", "stop_desc": null, "wheelchair_boarding": null, "vehicle_type": 700, "bus_lines": "5009" }, "geometry": { "type": "Point", "coordinates": [ 10.22868, 63.2619 ] } },
{ "type": "Feature", "properties": { "stop_name": "Kregnes", "stop_desc": null, "wheelchair_boarding": null, "vehicle_type": 700, "bus_lines": "5009" }, "geometry": { "type": "Point", "coordinates": [ 10.244335, 63.237545 ] } },
{ "type": "Feature", "properties": { "stop_name": "Kregnes", "stop_desc": null, "wheelchair_boarding": null, "vehicle_type": 700, "bus_lines": "5009" }, "geometry": { "type": "Point", "coordinates": [ 10.244464, 63.237537 ] } },
{ "type": "Feature", "properties": { "stop_name": "Lete", "stop_desc": null, "wheelchair_boarding": null, "vehicle_type": 700, "bus_lines": "5009" }, "geometry": { "type": "Point", "coordinates": [ 10.21483, 63.26026 ] } },
{ "type": "Feature", "properties": { "stop_name": "Sjetnan", "stop_desc": null, "wheelchair_boarding": null, "vehicle_type": 700, "bus_lines": "5009" }, "geometry": { "type": "Point", "coordinates": [ 10.222843, 63.245734 ] } },
{ "type": "Feature", "properties": { "stop_name": "Sjetnan", "stop_desc": null, "wheelchair_boarding": null, "vehicle_type": 700, "bus_lines": "5009" }, "geometry": { "type": "Point", "coordinates": [ 10.22319, 63.24591 ] } },
{ "type": "Feature", "properties": { "stop_name": "Dyre Halses gate", "stop_desc": null, "wheelchair_boarding": null, "vehicle_type": 700, "bus_lines": "10, 2, 28" }, "geometry": { "type": "Point", "coordinates": [ 10.414409, 63.436929 ] } },
{ "type": "Feature", "properties": { "stop_name": "Dyre Halses gate", "stop_desc": null, "wheelchair_boarding": null, "vehicle_type": 700, "bus_lines": "10, 2, 28" }, "geometry": { "type": "Point", "coordinates": [ 10.413972, 63.437025 ] } },
{ "type": "Feature", "properties": { "stop_name": "Ratesvingen", "stop_desc": null, "wheelchair_boarding": null, "vehicle_type": 700, "bus_lines": "10" }, "geometry": { "type": "Point", "coordinates": [ 10.399303, 63.387853 ] } },
{ "type": "Feature", "properties": { "stop_name": "Hesthagen", "stop_desc": null, "wheelchair_boarding": null, "vehicle_type": 700, "bus_lines": "1, 10, 103, 104, 109, 11, 110, 111, 112, 115, 13, 18, 2, 20, 51, 53, 54, 71, 72, 79" }, "geometry": { "type": "Point", "coordinates": [ 10.3972, 63.416799 ] } },
{ "type": "Feature", "properties": { "stop_name": "Lerkendal", "stop_desc": "i Holtermanns vei ut av sentrum", "wheelchair_boarding": null, "vehicle_type": 700, "bus_lines": "1, 10, 104, 109, 110, 111, 112, 14, 2, 20, 310, 311, 340, 410, 4101, 53, 54, 71, 72, 79" }, "geometry": { "type": "Point", "coordinates": [ 10.399045, 63.41174 ] } },
{ "type": "Feature", "properties": { "stop_name": "Østre Lund", "stop_desc": "Metrostasjon til og fra sentrum", "wheelchair_boarding": null, "vehicle_type": 700, "bus_lines": "1, 109, 2, 217, 52" }, "geometry": { "type": "Point", "coordinates": [ 10.331402, 63.350453 ] } },
{ "type": "Feature", "properties": { "stop_name": "Anders Søyseths veg", "stop_desc": null, "wheelchair_boarding": null, "vehicle_type": 700, "bus_lines": "1, 106, 201, 44" }, "geometry": { "type": "Point", "coordinates": [ 10.510649, 63.432493 ] } },
{ "type": "Feature", "properties": { "stop_name": "Anders Søyseths veg", "stop_desc": null, "wheelchair_boarding": null, "vehicle_type": 700, "bus_lines": "1, 201, 44, 54" }, "geometry": { "type": "Point", "coordinates": [ 10.510365, 63.4326 ] } },
{ "type": "Feature", "properties": { "stop_name": "Strindfjordvegen", "stop_desc": null, "wheelchair_boarding": null, "vehicle_type": 700, "bus_lines": "20" }, "geometry": { "type": "Point", "coordinates": [ 10.505357, 63.434843 ] } },
{ "type": "Feature", "properties": { "stop_name": "Strindfjordvegen", "stop_desc": null, "wheelchair_boarding": null, "vehicle_type": 700, "bus_lines": "20" }, "geometry": { "type": "Point", "coordinates": [ 10.504904, 63.435653 ] } },
{ "type": "Feature", "properties": { "stop_name": "Skonnertvegen", "stop_desc": null, "wheelchair_boarding": null, "vehicle_type": 700, "bus_lines": "20, 44" }, "geometry": { "type": "Point", "coordinates": [ 10.508181, 63.433588 ] } },
{ "type": "Feature", "properties": { "stop_name": "Torgardstrøa", "stop_desc": null, "wheelchair_boarding": null, "vehicle_type": 700, "bus_lines": "15, 16, 46" }, "geometry": { "type": "Point", "coordinates": [ 10.36784, 63.330804 ] } },
{ "type": "Feature", "properties": { "stop_name": "Torgardstrøa", "stop_desc": null, "wheelchair_boarding": null, "vehicle_type": 700, "bus_lines": "15, 16, 46" }, "geometry": { "type": "Point", "coordinates": [ 10.367923, 63.330369 ] } },
{ "type": "Feature", "properties": { "stop_name": "Hallset", "stop_desc": null, "wheelchair_boarding": null, "vehicle_type": 700, "bus_lines": "23, 3, 42, 53" }, "geometry": { "type": "Point", "coordinates": [ 10.367062, 63.39409 ] } },
{ "type": "Feature", "properties": { "stop_name": "Østre Berg", "stop_desc": "Ligger i Jonsvannsveien fra sentrum", "wheelchair_boarding": null, "vehicle_type": 700, "bus_lines": "102, 113, 14, 3" }, "geometry": { "type": "Point", "coordinates": [ 10.431328, 63.41512 ] } },
{ "type": "Feature", "properties": { "stop_name": "Skovgård", "stop_desc": "Ligger i Grilstadvegen", "wheelchair_boarding": null, "vehicle_type": 700, "bus_lines": "1" }, "geometry": { "type": "Point", "coordinates": [ 10.495908, 63.429427 ] } },
{ "type": "Feature", "properties": { "stop_name": "Skovgård", "stop_desc": null, "wheelchair_boarding": null, "vehicle_type": 700, "bus_lines": "1, 102, 14, 25, 70" }, "geometry": { "type": "Point", "coordinates": [ 10.493327, 63.429671 ] } },
{ "type": "Feature", "properties": { "stop_name": "Tonstadkrysset", "stop_desc": "foran Tonstadkrysset 2", "wheelchair_boarding": null, "vehicle_type": 700, "bus_lines": "1, 15, 2, 71" }, "geometry": { "type": "Point", "coordinates": [ 10.382118, 63.370705 ] } },
{ "type": "Feature", "properties": { "stop_name": "Arnt Smistads veg", "stop_desc": "Ligger i O.J. Aalmos veg fra Hallset", "wheelchair_boarding": null, "vehicle_type": 700, "bus_lines": "23, 3, 53" }, "geometry": { "type": "Point", "coordinates": [ 10.355797, 63.395831 ] } },
{ "type": "Feature", "properties": { "stop_name": "Grøset søndre", "stop_desc": null, "wheelchair_boarding": null, "vehicle_type": 700, "bus_lines": "208, 75" }, "geometry": { "type": "Point", "coordinates": [ 10.196187, 63.441363 ] } },
{ "type": "Feature", "properties": { "stop_name": "Sigrid Saxedatters veg", "stop_desc": null, "wheelchair_boarding": null, "vehicle_type": 700, "bus_lines": "79" }, "geometry": { "type": "Point", "coordinates": [ 10.598052, 63.43334 ] } },
{ "type": "Feature", "properties": { "stop_name": "Sigrid Saxedatters veg", "stop_desc": null, "wheelchair_boarding": null, "vehicle_type": 700, "bus_lines": "79" }, "geometry": { "type": "Point", "coordinates": [ 10.598537, 63.433209 ] } },
{ "type": "Feature", "properties": { "stop_name": "Saksvikkorsen", "stop_desc": null, "wheelchair_boarding": null, "vehicle_type": 700, "bus_lines": "79" }, "geometry": { "type": "Point", "coordinates": [ 10.593631, 63.433164 ] } },
{ "type": "Feature", "properties": { "stop_name": "Saksvikkorsen", "stop_desc": null, "wheelchair_boarding": null, "vehicle_type": 700, "bus_lines": "79" }, "geometry": { "type": "Point", "coordinates": [ 10.593669, 63.4331 ] } },
{ "type": "Feature", "properties": { "stop_name": "Stibakken", "stop_desc": null, "wheelchair_boarding": null, "vehicle_type": 700, "bus_lines": "79" }, "geometry": { "type": "Point", "coordinates": [ 10.605202, 63.433857 ] } },
{ "type": "Feature", "properties": { "stop_name": "Stibakken", "stop_desc": null, "wheelchair_boarding": null, "vehicle_type": 700, "bus_lines": "79" }, "geometry": { "type": "Point", "coordinates": [ 10.604733, 63.434057 ] } },
{ "type": "Feature", "properties": { "stop_name": "Kleiva", "stop_desc": null, "wheelchair_boarding": null, "vehicle_type": 700, "bus_lines": "207" }, "geometry": { "type": "Point", "coordinates": [ 10.666389, 63.416559 ] } },
{ "type": "Feature", "properties": { "stop_name": "Bedehuset", "stop_desc": null, "wheelchair_boarding": null, "vehicle_type": 700, "bus_lines": "207" }, "geometry": { "type": "Point", "coordinates": [ 10.673628, 63.424328 ] } },
{ "type": "Feature", "properties": { "stop_name": "Olav Kyrres gate", "stop_desc": null, "wheelchair_boarding": null, "vehicle_type": 700, "bus_lines": "310, 311, 340, 410" }, "geometry": { "type": "Point", "coordinates": [ 10.395515, 63.420817 ] } },
{ "type": "Feature", "properties": { "stop_name": "Olav Kyrres gate", "stop_desc": null, "wheelchair_boarding": null, "vehicle_type": 700, "bus_lines": "310, 311, 340, 410, 4101" }, "geometry": { "type": "Point", "coordinates": [ 10.395006, 63.420893 ] } },
{ "type": "Feature", "properties": { "stop_name": "Buran", "stop_desc": "i Innherredsveien ut av sentrum", "wheelchair_boarding": null, "vehicle_type": 700, "bus_lines": "1, 10, 102, 107, 116, 12, 22, 28, 70" }, "geometry": { "type": "Point", "coordinates": [ 10.427176, 63.436477 ] } },
{ "type": "Feature", "properties": { "stop_name": "Buran", "stop_desc": "i Mellomveien ved Lamoparken", "wheelchair_boarding": null, "vehicle_type": 700, "bus_lines": "106, 2" }, "geometry": { "type": "Point", "coordinates": [ 10.426835, 63.437122 ] } },
{ "type": "Feature", "properties": { "stop_name": "Buran", "stop_desc": "i Innherredsveien mot sentrum", "wheelchair_boarding": null, "vehicle_type": 700, "bus_lines": "1, 10, 12, 22, 28, 70" }, "geometry": { "type": "Point", "coordinates": [ 10.42835, 63.43659 ] } },
{ "type": "Feature", "properties": { "stop_name": "Kvithammer", "stop_desc": null, "wheelchair_boarding": null, "vehicle_type": 700, "bus_lines": "7425, 7702, 7705" }, "geometry": { "type": "Point", "coordinates": [ 10.88416, 63.490589 ] } },
{ "type": "Feature", "properties": { "stop_name": "Rye skole", "stop_desc": "ved skoleplassen.", "wheelchair_boarding": null, "vehicle_type": 700, "bus_lines": "75, 76" }, "geometry": { "type": "Point", "coordinates": [ 10.145946, 63.41893 ] } },
{ "type": "Feature", "properties": { "stop_name": "Væresbakken", "stop_desc": "Ligger i Væresvegen mot sentrum", "wheelchair_boarding": null, "vehicle_type": 700, "bus_lines": "79" }, "geometry": { "type": "Point", "coordinates": [ 10.584568, 63.430731 ] } },
{ "type": "Feature", "properties": { "stop_name": "Bratsberg skole", "stop_desc": null, "wheelchair_boarding": null, "vehicle_type": 700, "bus_lines": "81" }, "geometry": { "type": "Point", "coordinates": [ 10.479109, 63.349591 ] } },
{ "type": "Feature", "properties": { "stop_name": "Nypvang skole", "stop_desc": null, "wheelchair_boarding": null, "vehicle_type": 700, "bus_lines": "215, 216, 77" }, "geometry": { "type": "Point", "coordinates": [ 10.299221, 63.331648 ] } },
{ "type": "Feature", "properties": { "stop_name": "Høyeggen snuplass", "stop_desc": null, "wheelchair_boarding": null, "vehicle_type": 700, "bus_lines": "5001, 5004, 82" }, "geometry": { "type": "Point", "coordinates": [ 10.295764, 63.286581 ] } },
{ "type": "Feature", "properties": { "stop_name": "Sørborgen skole", "stop_desc": null, "wheelchair_boarding": null, "vehicle_type": 700, "bus_lines": "214, 73, 83" }, "geometry": { "type": "Point", "coordinates": [ 10.465878, 63.305472 ] } },
{ "type": "Feature", "properties": { "stop_name": "Hallvardsplassen", "stop_desc": null, "wheelchair_boarding": null, "vehicle_type": 700, "bus_lines": "204, 85" }, "geometry": { "type": "Point", "coordinates": [ 10.794365, 63.34015 ] } },
{ "type": "Feature", "properties": { "stop_name": "Modalen", "stop_desc": null, "wheelchair_boarding": null, "vehicle_type": 700, "bus_lines": "204, 85" }, "geometry": { "type": "Point", "coordinates": [ 10.793324, 63.399675 ] } },
{ "type": "Feature", "properties": { "stop_name": "Modalen", "stop_desc": null, "wheelchair_boarding": null, "vehicle_type": 700, "bus_lines": "204, 85" }, "geometry": { "type": "Point", "coordinates": [ 10.793555, 63.399682 ] } },
{ "type": "Feature", "properties": { "stop_name": "Grindbakken", "stop_desc": null, "wheelchair_boarding": null, "vehicle_type": 700, "bus_lines": "204, 85" }, "geometry": { "type": "Point", "coordinates": [ 10.789669, 63.397396 ] } },
{ "type": "Feature", "properties": { "stop_name": "Grindbakken", "stop_desc": null, "wheelchair_boarding": null, "vehicle_type": 700, "bus_lines": "204, 85" }, "geometry": { "type": "Point", "coordinates": [ 10.789985, 63.397491 ] } },
{ "type": "Feature", "properties": { "stop_name": "Fossmo", "stop_desc": null, "wheelchair_boarding": null, "vehicle_type": 700, "bus_lines": "204, 85" }, "geometry": { "type": "Point", "coordinates": [ 10.766937, 63.375649 ] } },
{ "type": "Feature", "properties": { "stop_name": "Fossmo", "stop_desc": null, "wheelchair_boarding": null, "vehicle_type": 700, "bus_lines": "204, 85" }, "geometry": { "type": "Point", "coordinates": [ 10.76694, 63.375941 ] } },
{ "type": "Feature", "properties": { "stop_name": "Storbergveien", "stop_desc": null, "wheelchair_boarding": null, "vehicle_type": 700, "bus_lines": "204, 85" }, "geometry": { "type": "Point", "coordinates": [ 10.794781, 63.402052 ] } },
{ "type": "Feature", "properties": { "stop_name": "Storbergveien", "stop_desc": null, "wheelchair_boarding": null, "vehicle_type": 700, "bus_lines": "204, 85" }, "geometry": { "type": "Point", "coordinates": [ 10.794888, 63.402195 ] } },
{ "type": "Feature", "properties": { "stop_name": "Buås", "stop_desc": null, "wheelchair_boarding": null, "vehicle_type": 700, "bus_lines": "204, 85" }, "geometry": { "type": "Point", "coordinates": [ 10.782885, 63.392783 ] } },
{ "type": "Feature", "properties": { "stop_name": "Buås", "stop_desc": null, "wheelchair_boarding": null, "vehicle_type": 700, "bus_lines": "204, 85" }, "geometry": { "type": "Point", "coordinates": [ 10.782515, 63.392705 ] } },
{ "type": "Feature", "properties": { "stop_name": "Fosslidalen", "stop_desc": null, "wheelchair_boarding": null, "vehicle_type": 700, "bus_lines": "204, 85" }, "geometry": { "type": "Point", "coordinates": [ 10.771041, 63.380866 ] } },
{ "type": "Feature", "properties": { "stop_name": "Fosslidalen", "stop_desc": null, "wheelchair_boarding": null, "vehicle_type": 700, "bus_lines": "204, 85" }, "geometry": { "type": "Point", "coordinates": [ 10.771025, 63.380791 ] } },
{ "type": "Feature", "properties": { "stop_name": "Fossen gård", "stop_desc": null, "wheelchair_boarding": null, "vehicle_type": 700, "bus_lines": "204, 85" }, "geometry": { "type": "Point", "coordinates": [ 10.772191, 63.378875 ] } },
{ "type": "Feature", "properties": { "stop_name": "Fossen gård", "stop_desc": null, "wheelchair_boarding": null, "vehicle_type": 700, "bus_lines": "204, 85" }, "geometry": { "type": "Point", "coordinates": [ 10.772044, 63.378827 ] } },
{ "type": "Feature", "properties": { "stop_name": "Verket", "stop_desc": null, "wheelchair_boarding": null, "vehicle_type": 700, "bus_lines": "204, 85" }, "geometry": { "type": "Point", "coordinates": [ 10.773326, 63.350954 ] } },
{ "type": "Feature", "properties": { "stop_name": "Hallvardsplassen", "stop_desc": null, "wheelchair_boarding": null, "vehicle_type": 700, "bus_lines": "204, 85" }, "geometry": { "type": "Point", "coordinates": [ 10.794199, 63.340016 ] } },
{ "type": "Feature", "properties": { "stop_name": "Geita", "stop_desc": null, "wheelchair_boarding": null, "vehicle_type": 700, "bus_lines": "5102" }, "geometry": { "type": "Point", "coordinates": [ 9.965147, 63.429809 ] } },
{ "type": "Feature", "properties": { "stop_name": "Jystadmyran", "stop_desc": null, "wheelchair_boarding": null, "vehicle_type": 700, "bus_lines": "5111" }, "geometry": { "type": "Point", "coordinates": [ 10.008446, 63.268925 ] } },
{ "type": "Feature", "properties": { "stop_name": "Kjøra boligfelt", "stop_desc": null, "wheelchair_boarding": null, "vehicle_type": 700, "bus_lines": "5102" }, "geometry": { "type": "Point", "coordinates": [ 9.959691, 63.416044 ] } },
{ "type": "Feature", "properties": { "stop_name": "Væresletta", "stop_desc": null, "wheelchair_boarding": null, "vehicle_type": 700, "bus_lines": "106, 201, 44, 79" }, "geometry": { "type": "Point", "coordinates": [ 10.570127, 63.430722 ] } },
{ "type": "Feature", "properties": { "stop_name": "Væresletta", "stop_desc": null, "wheelchair_boarding": null, "vehicle_type": 700, "bus_lines": "201, 44, 79" }, "geometry": { "type": "Point", "coordinates": [ 10.569534, 63.430755 ] } },
{ "type": "Feature", "properties": { "stop_name": "Være", "stop_desc": null, "wheelchair_boarding": null, "vehicle_type": 700, "bus_lines": "201, 211, 44, 70, 79" }, "geometry": { "type": "Point", "coordinates": [ 10.565436, 63.430277 ] } },
{ "type": "Feature", "properties": { "stop_name": "Aunvegen", "stop_desc": null, "wheelchair_boarding": null, "vehicle_type": 700, "bus_lines": "7707" }, "geometry": { "type": "Point", "coordinates": [ 10.917406, 63.436654 ] } },
{ "type": "Feature", "properties": { "stop_name": "Aunvegen", "stop_desc": null, "wheelchair_boarding": null, "vehicle_type": 700, "bus_lines": "7707" }, "geometry": { "type": "Point", "coordinates": [ 10.916647, 63.436405 ] } },
{ "type": "Feature", "properties": { "stop_name": "Bangvegen", "stop_desc": null, "wheelchair_boarding": null, "vehicle_type": 700, "bus_lines": "7712" }, "geometry": { "type": "Point", "coordinates": [ 11.081168, 63.495555 ] } },
{ "type": "Feature", "properties": { "stop_name": "Fagerhaugveien", "stop_desc": null, "wheelchair_boarding": null, "vehicle_type": 700, "bus_lines": "7702" }, "geometry": { "type": "Point", "coordinates": [ 10.847237, 63.509465 ] } },
{ "type": "Feature", "properties": { "stop_name": "Fagerhaugveien", "stop_desc": null, "wheelchair_boarding": null, "vehicle_type": 700, "bus_lines": "7702" }, "geometry": { "type": "Point", "coordinates": [ 10.847795, 63.509641 ] } },
{ "type": "Feature", "properties": { "stop_name": "Sluppen", "stop_desc": null, "wheelchair_boarding": null, "vehicle_type": 700, "bus_lines": "1, 2, 310, 340, 410, 71, 72" }, "geometry": { "type": "Point", "coordinates": [ 10.395796, 63.401921 ] } },
{ "type": "Feature", "properties": { "stop_name": "Ingstadnesset", "stop_desc": null, "wheelchair_boarding": null, "vehicle_type": 700, "bus_lines": "7710" }, "geometry": { "type": "Point", "coordinates": [ 11.203933, 63.444579 ] } },
{ "type": "Feature", "properties": { "stop_name": "Nygård", "stop_desc": null, "wheelchair_boarding": null, "vehicle_type": 700, "bus_lines": "7425, 7705" }, "geometry": { "type": "Point", "coordinates": [ 10.84563, 63.524606 ] } },
{ "type": "Feature", "properties": { "stop_name": "Sørsidevegen", "stop_desc": null, "wheelchair_boarding": null, "vehicle_type": 700, "bus_lines": "7708" }, "geometry": { "type": "Point", "coordinates": [ 10.954694, 63.447515 ] } },
{ "type": "Feature", "properties": { "stop_name": "Sørsidevegen", "stop_desc": null, "wheelchair_boarding": null, "vehicle_type": 700, "bus_lines": "7709" }, "geometry": { "type": "Point", "coordinates": [ 10.95475, 63.447398 ] } },
{ "type": "Feature", "properties": { "stop_name": "Tillervegen", "stop_desc": null, "wheelchair_boarding": null, "vehicle_type": 700, "bus_lines": "7702, 7705" }, "geometry": { "type": "Point", "coordinates": [ 10.839893, 63.528422 ] } },
{ "type": "Feature", "properties": { "stop_name": "Velvang østre", "stop_desc": null, "wheelchair_boarding": null, "vehicle_type": 700, "bus_lines": "7702" }, "geometry": { "type": "Point", "coordinates": [ 10.812789, 63.476145 ] } },
{ "type": "Feature", "properties": { "stop_name": "Rørvik ferjekai", "stop_desc": null, "wheelchair_boarding": null, "vehicle_type": 700, "bus_lines": "350, 452" }, "geometry": { "type": "Point", "coordinates": [ 10.137983, 63.509545 ] } },
{ "type": "Feature", "properties": { "stop_name": "Børsa", "stop_desc": null, "wheelchair_boarding": null, "vehicle_type": 700, "bus_lines": "410, 4101, 5109" }, "geometry": { "type": "Point", "coordinates": [ 10.069833, 63.326156 ] } },
{ "type": "Feature", "properties": { "stop_name": "Buvikkrysset E39", "stop_desc": null, "wheelchair_boarding": null, "vehicle_type": 700, "bus_lines": "5109, 515" }, "geometry": { "type": "Point", "coordinates": [ 10.173957, 63.306651 ] } },
{ "type": "Feature", "properties": { "stop_name": "Børskrysset Fv709", "stop_desc": "Ligger i Skaunavegen", "wheelchair_boarding": null, "vehicle_type": 700, "bus_lines": "5110, 5111" }, "geometry": { "type": "Point", "coordinates": [ 10.061379, 63.321468 ] } },
{ "type": "Feature", "properties": { "stop_name": "Vanvikan", "stop_desc": null, "wheelchair_boarding": null, "vehicle_type": 700, "bus_lines": "455, 552, 5535, 630" }, "geometry": { "type": "Point", "coordinates": [ 10.222953, 63.553442 ] } },
{ "type": "Feature", "properties": { "stop_name": "Kleivavegen", "stop_desc": null, "wheelchair_boarding": null, "vehicle_type": 700, "bus_lines": "350, 452, 5505, 552" }, "geometry": { "type": "Point", "coordinates": [ 10.207219, 63.551896 ] } },
{ "type": "Feature", "properties": { "stop_name": "Vollakrysset", "stop_desc": null, "wheelchair_boarding": null, "vehicle_type": 700, "bus_lines": "350, 5505" }, "geometry": { "type": "Point", "coordinates": [ 10.201641, 63.548502 ] } },
{ "type": "Feature", "properties": { "stop_name": "Marienborg stasjon", "stop_desc": null, "wheelchair_boarding": null, "vehicle_type": 700, "bus_lines": "12, 70" }, "geometry": { "type": "Point", "coordinates": [ 10.38211, 63.41882 ] } },
{ "type": "Feature", "properties": { "stop_name": "Dronningens gate 62", "stop_desc": null, "wheelchair_boarding": null, "vehicle_type": 900, "bus_lines": "9" }, "geometry": { "type": "Point", "coordinates": [ 10.388027, 63.43153 ] } },
{ "type": "Feature", "properties": { "stop_name": "Hospitalskirka", "stop_desc": null, "wheelchair_boarding": null, "vehicle_type": 900, "bus_lines": "9" }, "geometry": { "type": "Point", "coordinates": [ 10.385092, 63.430358 ] } },
{ "type": "Feature", "properties": { "stop_name": "Hospitalskirka", "stop_desc": null, "wheelchair_boarding": null, "vehicle_type": 900, "bus_lines": "9" }, "geometry": { "type": "Point", "coordinates": [ 10.382971, 63.43023 ] } },
{ "type": "Feature", "properties": { "stop_name": "Paul Skolemesters veg", "stop_desc": null, "wheelchair_boarding": null, "vehicle_type": 700, "bus_lines": "10, 18" }, "geometry": { "type": "Point", "coordinates": [ 10.394458, 63.36963 ] } },
{ "type": "Feature", "properties": { "stop_name": "Bakken snuplass", "stop_desc": null, "wheelchair_boarding": null, "vehicle_type": 700, "bus_lines": "204, 85" }, "geometry": { "type": "Point", "coordinates": [ 10.759802, 63.36702 ] } },
{ "type": "Feature", "properties": { "stop_name": "Grøset søndre", "stop_desc": null, "wheelchair_boarding": null, "vehicle_type": 700, "bus_lines": "217, 75" }, "geometry": { "type": "Point", "coordinates": [ 10.195439, 63.441639 ] } },
{ "type": "Feature", "properties": { "stop_name": "Ila", "stop_desc": null, "wheelchair_boarding": null, "vehicle_type": 900, "bus_lines": "9" }, "geometry": { "type": "Point", "coordinates": [ 10.368299, 63.429279 ] } },
{ "type": "Feature", "properties": { "stop_name": "Ila", "stop_desc": null, "wheelchair_boarding": null, "vehicle_type": 900, "bus_lines": "9" }, "geometry": { "type": "Point", "coordinates": [ 10.367315, 63.428594 ] } },
{ "type": "Feature", "properties": { "stop_name": "Skansen", "stop_desc": null, "wheelchair_boarding": null, "vehicle_type": 900, "bus_lines": "9" }, "geometry": { "type": "Point", "coordinates": [ 10.371861, 63.429731 ] } },
{ "type": "Feature", "properties": { "stop_name": "Skansen", "stop_desc": null, "wheelchair_boarding": null, "vehicle_type": 900, "bus_lines": "9" }, "geometry": { "type": "Point", "coordinates": [ 10.373602, 63.430071 ] } },
{ "type": "Feature", "properties": { "stop_name": "Lauvåsen", "stop_desc": null, "wheelchair_boarding": null, "vehicle_type": 700, "bus_lines": "215" }, "geometry": { "type": "Point", "coordinates": [ 10.243673, 63.35141 ] } },
{ "type": "Feature", "properties": { "stop_name": "Krokvikvegen", "stop_desc": null, "wheelchair_boarding": null, "vehicle_type": 700, "bus_lines": "7425, 7702" }, "geometry": { "type": "Point", "coordinates": [ 10.862472, 63.542694 ] } },
{ "type": "Feature", "properties": { "stop_name": "Hegra barneskole", "stop_desc": null, "wheelchair_boarding": null, "vehicle_type": 700, "bus_lines": "7708, 7710, 7712" }, "geometry": { "type": "Point", "coordinates": [ 11.1098, 63.46998 ] } },
{ "type": "Feature", "properties": { "stop_name": "Hegra barneskole", "stop_desc": null, "wheelchair_boarding": null, "vehicle_type": 700, "bus_lines": "7708, 7711" }, "geometry": { "type": "Point", "coordinates": [ 11.11003, 63.47003 ] } },
{ "type": "Feature", "properties": { "stop_name": "Dronningens gate", "stop_desc": "over veien for Riibe Mynthandel", "wheelchair_boarding": null, "vehicle_type": 700, "bus_lines": "110, 112, 114, 18" }, "geometry": { "type": "Point", "coordinates": [ 10.391454, 63.431906 ] } },
{ "type": "Feature", "properties": { "stop_name": "Kolstad kirke", "stop_desc": null, "wheelchair_boarding": null, "vehicle_type": 700, "bus_lines": "16, 52" }, "geometry": { "type": "Point", "coordinates": [ 10.342813, 63.363451 ] } },
{ "type": "Feature", "properties": { "stop_name": "Hembre grus", "stop_desc": null, "wheelchair_boarding": null, "vehicle_type": 700, "bus_lines": "7710" }, "geometry": { "type": "Point", "coordinates": [ 11.123172, 63.45961 ] } },
{ "type": "Feature", "properties": { "stop_name": "Hallansvingen", "stop_desc": null, "wheelchair_boarding": null, "vehicle_type": 700, "bus_lines": "5001" }, "geometry": { "type": "Point", "coordinates": [ 10.41637, 63.31434 ] } },
{ "type": "Feature", "properties": { "stop_name": "Evjevegen", "stop_desc": null, "wheelchair_boarding": null, "vehicle_type": 700, "bus_lines": "670, 7425, 7708" }, "geometry": { "type": "Point", "coordinates": [ 10.925093, 63.470937 ] } },
{ "type": "Feature", "properties": { "stop_name": "Øvre Eggan", "stop_desc": null, "wheelchair_boarding": null, "vehicle_type": 700, "bus_lines": "77" }, "geometry": { "type": "Point", "coordinates": [ 10.28129, 63.33683 ] } },
{ "type": "Feature", "properties": { "stop_name": "Øvre Eggan", "stop_desc": null, "wheelchair_boarding": null, "vehicle_type": 700, "bus_lines": "77" }, "geometry": { "type": "Point", "coordinates": [ 10.28117, 63.3368 ] } },
{ "type": "Feature", "properties": { "stop_name": "Malmsjøvegen", "stop_desc": null, "wheelchair_boarding": null, "vehicle_type": 700, "bus_lines": "5111" }, "geometry": { "type": "Point", "coordinates": [ 10.12408, 63.23007 ] } },
{ "type": "Feature", "properties": { "stop_name": "Vassbygda grendahus", "stop_desc": null, "wheelchair_boarding": null, "vehicle_type": 700, "bus_lines": "5111" }, "geometry": { "type": "Point", "coordinates": [ 10.125806, 63.231312 ] } },
{ "type": "Feature", "properties": { "stop_name": "Vassbygda grendahus", "stop_desc": null, "wheelchair_boarding": null, "vehicle_type": 700, "bus_lines": "5111" }, "geometry": { "type": "Point", "coordinates": [ 10.125669, 63.231402 ] } },
{ "type": "Feature", "properties": { "stop_name": "Coop Venn", "stop_desc": null, "wheelchair_boarding": null, "vehicle_type": 700, "bus_lines": "505, 511, 5110, 5111" }, "geometry": { "type": "Point", "coordinates": [ 10.052302, 63.251475 ] } },
{ "type": "Feature", "properties": { "stop_name": "Bergvegen", "stop_desc": null, "wheelchair_boarding": null, "vehicle_type": 700, "bus_lines": "5003" }, "geometry": { "type": "Point", "coordinates": [ 10.245019, 63.295186 ] } },
{ "type": "Feature", "properties": { "stop_name": "Aunlykkja", "stop_desc": null, "wheelchair_boarding": null, "vehicle_type": 700, "bus_lines": "5102" }, "geometry": { "type": "Point", "coordinates": [ 9.94518, 63.43432 ] } },
{ "type": "Feature", "properties": { "stop_name": "Hammerfjell", "stop_desc": null, "wheelchair_boarding": null, "vehicle_type": 700, "bus_lines": "5102" }, "geometry": { "type": "Point", "coordinates": [ 9.93507, 63.43567 ] } },
{ "type": "Feature", "properties": { "stop_name": "Øysand camping", "stop_desc": null, "wheelchair_boarding": null, "vehicle_type": 700, "bus_lines": "5002" }, "geometry": { "type": "Point", "coordinates": [ 10.21563, 63.32632 ] } },
{ "type": "Feature", "properties": { "stop_name": "Vassbygda", "stop_desc": null, "wheelchair_boarding": null, "vehicle_type": 700, "bus_lines": "7703" }, "geometry": { "type": "Point", "coordinates": [ 11.00259, 63.5078 ] } },
{ "type": "Feature", "properties": { "stop_name": "Trondheim hurtigbåtterminal", "stop_desc": null, "wheelchair_boarding": null, "vehicle_type": 1000, "bus_lines": "800" }, "geometry": { "type": "Point", "coordinates": [ 10.39632, 63.43814 ] } },
{ "type": "Feature", "properties": { "stop_name": "Trondheim hurtigbåtterminal", "stop_desc": null, "wheelchair_boarding": null, "vehicle_type": 1000, "bus_lines": "810" }, "geometry": { "type": "Point", "coordinates": [ 10.396226, 63.438186 ] } },
{ "type": "Feature", "properties": { "stop_name": "Langmyra", "stop_desc": null, "wheelchair_boarding": null, "vehicle_type": 700, "bus_lines": "5008" }, "geometry": { "type": "Point", "coordinates": [ 10.431449, 63.239705 ] } },
{ "type": "Feature", "properties": { "stop_name": "Nestingvegen", "stop_desc": null, "wheelchair_boarding": null, "vehicle_type": 700, "bus_lines": "77" }, "geometry": { "type": "Point", "coordinates": [ 10.193829, 63.348741 ] } },
{ "type": "Feature", "properties": { "stop_name": "By gård", "stop_desc": null, "wheelchair_boarding": null, "vehicle_type": 700, "bus_lines": "75" }, "geometry": { "type": "Point", "coordinates": [ 10.15969, 63.42713 ] } },
{ "type": "Feature", "properties": { "stop_name": "By gård", "stop_desc": null, "wheelchair_boarding": null, "vehicle_type": 700, "bus_lines": "114, 75" }, "geometry": { "type": "Point", "coordinates": [ 10.1588, 63.42707 ] } },
{ "type": "Feature", "properties": { "stop_name": "Coop Venn", "stop_desc": null, "wheelchair_boarding": null, "vehicle_type": 700, "bus_lines": "511, 5111" }, "geometry": { "type": "Point", "coordinates": [ 10.052375, 63.251569 ] } },
{ "type": "Feature", "properties": { "stop_name": "Skogstadvegen", "stop_desc": null, "wheelchair_boarding": null, "vehicle_type": 700, "bus_lines": "77" }, "geometry": { "type": "Point", "coordinates": [ 10.21412, 63.347413 ] } },
{ "type": "Feature", "properties": { "stop_name": "Skogstadvegen", "stop_desc": null, "wheelchair_boarding": null, "vehicle_type": 700, "bus_lines": "77" }, "geometry": { "type": "Point", "coordinates": [ 10.213938, 63.347485 ] } },
{ "type": "Feature", "properties": { "stop_name": "Hofstadsanden E6", "stop_desc": null, "wheelchair_boarding": null, "vehicle_type": 700, "bus_lines": "440, 480" }, "geometry": { "type": "Point", "coordinates": [ 10.27923, 63.25186 ] } },
{ "type": "Feature", "properties": { "stop_name": "Hofstadsanden E6", "stop_desc": null, "wheelchair_boarding": null, "vehicle_type": 700, "bus_lines": "340, 440, 480" }, "geometry": { "type": "Point", "coordinates": [ 10.28078, 63.25152 ] } },
{ "type": "Feature", "properties": { "stop_name": "Sluppen", "stop_desc": null, "wheelchair_boarding": null, "vehicle_type": 700, "bus_lines": "1, 104, 110, 111, 2, 310, 340, 410, 4101, 71, 72" }, "geometry": { "type": "Point", "coordinates": [ 10.39504, 63.40095 ] } },
{ "type": "Feature", "properties": { "stop_name": "Holo", "stop_desc": null, "wheelchair_boarding": null, "vehicle_type": 700, "bus_lines": "5111" }, "geometry": { "type": "Point", "coordinates": [ 10.01921, 63.25608 ] } },
{ "type": "Feature", "properties": { "stop_name": "Holo", "stop_desc": null, "wheelchair_boarding": null, "vehicle_type": 700, "bus_lines": "5111" }, "geometry": { "type": "Point", "coordinates": [ 10.01897, 63.25602 ] } },
{ "type": "Feature", "properties": { "stop_name": "Rylen", "stop_desc": null, "wheelchair_boarding": null, "vehicle_type": 700, "bus_lines": "350, 452, 5501, 5502, 5505, 552" }, "geometry": { "type": "Point", "coordinates": [ 9.93194, 63.55926 ] } },
{ "type": "Feature", "properties": { "stop_name": "Herjuan", "stop_desc": null, "wheelchair_boarding": null, "vehicle_type": 700, "bus_lines": "207" }, "geometry": { "type": "Point", "coordinates": [ 10.645985, 63.393344 ] } },
{ "type": "Feature", "properties": { "stop_name": "Steinberget", "stop_desc": null, "wheelchair_boarding": null, "vehicle_type": 700, "bus_lines": "108, 18" }, "geometry": { "type": "Point", "coordinates": [ 10.365367, 63.428594 ] } },
{ "type": "Feature", "properties": { "stop_name": "Steinberget", "stop_desc": null, "wheelchair_boarding": null, "vehicle_type": 700, "bus_lines": "18" }, "geometry": { "type": "Point", "coordinates": [ 10.36541, 63.428516 ] } },
{ "type": "Feature", "properties": { "stop_name": "Skansen", "stop_desc": null, "wheelchair_boarding": null, "vehicle_type": 700, "bus_lines": "11, 18, 21, 28, 3, 53, 75, 76, 999" }, "geometry": { "type": "Point", "coordinates": [ 10.3744, 63.43008 ] } },
{ "type": "Feature", "properties": { "stop_name": "Røddebakken", "stop_desc": null, "wheelchair_boarding": null, "vehicle_type": 700, "bus_lines": "5001" }, "geometry": { "type": "Point", "coordinates": [ 10.356728, 63.314675 ] } },
{ "type": "Feature", "properties": { "stop_name": "Ramsjøbu", "stop_desc": null, "wheelchair_boarding": null, "vehicle_type": 700, "bus_lines": "5111" }, "geometry": { "type": "Point", "coordinates": [ 9.952634, 63.253503 ] } },
{ "type": "Feature", "properties": { "stop_name": "Lade gård", "stop_desc": null, "wheelchair_boarding": null, "vehicle_type": 700, "bus_lines": "106, 15, 20" }, "geometry": { "type": "Point", "coordinates": [ 10.440185, 63.44767 ] } },
{ "type": "Feature", "properties": { "stop_name": "Krøykesberget", "stop_desc": null, "wheelchair_boarding": null, "vehicle_type": 700, "bus_lines": "7702, 7703" }, "geometry": { "type": "Point", "coordinates": [ 10.822732, 63.498913 ] } },
{ "type": "Feature", "properties": { "stop_name": "Havneveien", "stop_desc": null, "wheelchair_boarding": null, "vehicle_type": 700, "bus_lines": "86" }, "geometry": { "type": "Point", "coordinates": [ 10.805373, 63.413432 ] } },
{ "type": "Feature", "properties": { "stop_name": "Skogly", "stop_desc": null, "wheelchair_boarding": null, "vehicle_type": 700, "bus_lines": "214" }, "geometry": { "type": "Point", "coordinates": [ 10.471663, 63.337748 ] } },
{ "type": "Feature", "properties": { "stop_name": "Skogly", "stop_desc": null, "wheelchair_boarding": null, "vehicle_type": 700, "bus_lines": "214" }, "geometry": { "type": "Point", "coordinates": [ 10.471258, 63.338191 ] } },
{ "type": "Feature", "properties": { "stop_name": "Skogaromvegen", "stop_desc": null, "wheelchair_boarding": null, "vehicle_type": 700, "bus_lines": "5002, 5109" }, "geometry": { "type": "Point", "coordinates": [ 10.14338, 63.299601 ] } },
{ "type": "Feature", "properties": { "stop_name": "Allbrukshuset", "stop_desc": null, "wheelchair_boarding": null, "vehicle_type": 700, "bus_lines": "5002, 5109" }, "geometry": { "type": "Point", "coordinates": [ 10.143398, 63.301718 ] } },
{ "type": "Feature", "properties": { "stop_name": "Buran", "stop_desc": null, "wheelchair_boarding": null, "vehicle_type": 700, "bus_lines": "2, 54" }, "geometry": { "type": "Point", "coordinates": [ 10.426457, 63.43703 ] } },
{ "type": "Feature", "properties": { "stop_name": "Kolstaddalen", "stop_desc": null, "wheelchair_boarding": null, "vehicle_type": 700, "bus_lines": "72" }, "geometry": { "type": "Point", "coordinates": [ 10.367175, 63.368782 ] } },
{ "type": "Feature", "properties": { "stop_name": "Okstadøy", "stop_desc": null, "wheelchair_boarding": null, "vehicle_type": 700, "bus_lines": "72" }, "geometry": { "type": "Point", "coordinates": [ 10.366569, 63.374221 ] } },
{ "type": "Feature", "properties": { "stop_name": "Sjøtrøa", "stop_desc": null, "wheelchair_boarding": null, "vehicle_type": 700, "bus_lines": "205" }, "geometry": { "type": "Point", "coordinates": [ 10.744492, 63.432227 ] } },
{ "type": "Feature", "properties": { "stop_name": "Røstadbakken", "stop_desc": null, "wheelchair_boarding": null, "vehicle_type": 700, "bus_lines": "5380" }, "geometry": { "type": "Point", "coordinates": [ 10.508337, 63.390886 ] } },
{ "type": "Feature", "properties": { "stop_name": "Langeland", "stop_desc": null, "wheelchair_boarding": null, "vehicle_type": 700, "bus_lines": "5008" }, "geometry": { "type": "Point", "coordinates": [ 10.374801, 63.198606 ] } },
{ "type": "Feature", "properties": { "stop_name": "Langeland", "stop_desc": null, "wheelchair_boarding": null, "vehicle_type": 700, "bus_lines": "5008" }, "geometry": { "type": "Point", "coordinates": [ 10.37468, 63.198611 ] } },
{ "type": "Feature", "properties": { "stop_name": "Dalslykkja", "stop_desc": null, "wheelchair_boarding": null, "vehicle_type": 700, "bus_lines": "5008" }, "geometry": { "type": "Point", "coordinates": [ 10.365906, 63.196128 ] } },
{ "type": "Feature", "properties": { "stop_name": "Dalslykkja", "stop_desc": null, "wheelchair_boarding": null, "vehicle_type": 700, "bus_lines": "5008" }, "geometry": { "type": "Point", "coordinates": [ 10.365654, 63.196133 ] } },
{ "type": "Feature", "properties": { "stop_name": "Langlykkja", "stop_desc": null, "wheelchair_boarding": null, "vehicle_type": 700, "bus_lines": "5008" }, "geometry": { "type": "Point", "coordinates": [ 10.347713, 63.194616 ] } },
{ "type": "Feature", "properties": { "stop_name": "Langlykkja", "stop_desc": null, "wheelchair_boarding": null, "vehicle_type": 700, "bus_lines": "5008" }, "geometry": { "type": "Point", "coordinates": [ 10.347348, 63.19469 ] } },
{ "type": "Feature", "properties": { "stop_name": "Håggån", "stop_desc": null, "wheelchair_boarding": null, "vehicle_type": 700, "bus_lines": "5008" }, "geometry": { "type": "Point", "coordinates": [ 10.341592, 63.195453 ] } },
{ "type": "Feature", "properties": { "stop_name": "Håggån", "stop_desc": null, "wheelchair_boarding": null, "vehicle_type": 700, "bus_lines": "5008" }, "geometry": { "type": "Point", "coordinates": [ 10.341659, 63.195408 ] } },
{ "type": "Feature", "properties": { "stop_name": "Løksmyrvegen", "stop_desc": null, "wheelchair_boarding": null, "vehicle_type": 700, "bus_lines": "5008" }, "geometry": { "type": "Point", "coordinates": [ 10.439917, 63.233267 ] } },
{ "type": "Feature", "properties": { "stop_name": "Høgsæte", "stop_desc": null, "wheelchair_boarding": null, "vehicle_type": 700, "bus_lines": "5008" }, "geometry": { "type": "Point", "coordinates": [ 10.313281, 63.183593 ] } },
{ "type": "Feature", "properties": { "stop_name": "Framgarden", "stop_desc": null, "wheelchair_boarding": null, "vehicle_type": 700, "bus_lines": "5008" }, "geometry": { "type": "Point", "coordinates": [ 10.29319, 63.155916 ] } },
{ "type": "Feature", "properties": { "stop_name": "Vikhammerdalen", "stop_desc": null, "wheelchair_boarding": null, "vehicle_type": 700, "bus_lines": "86" }, "geometry": { "type": "Point", "coordinates": [ 10.628017, 63.430669 ] } },
{ "type": "Feature", "properties": { "stop_name": "Drakstenvegen", "stop_desc": null, "wheelchair_boarding": null, "vehicle_type": 700, "bus_lines": "5380" }, "geometry": { "type": "Point", "coordinates": [ 10.68724, 63.29388 ] } },
{ "type": "Feature", "properties": { "stop_name": "Drakstenvegen", "stop_desc": null, "wheelchair_boarding": null, "vehicle_type": 700, "bus_lines": "5380" }, "geometry": { "type": "Point", "coordinates": [ 10.68706, 63.29385 ] } },
{ "type": "Feature", "properties": { "stop_name": "Brottan", "stop_desc": null, "wheelchair_boarding": null, "vehicle_type": 700, "bus_lines": "5380" }, "geometry": { "type": "Point", "coordinates": [ 10.61186, 63.37345 ] } },
{ "type": "Feature", "properties": { "stop_name": "Brottan", "stop_desc": null, "wheelchair_boarding": null, "vehicle_type": 700, "bus_lines": "5380" }, "geometry": { "type": "Point", "coordinates": [ 10.61194, 63.37352 ] } },
{ "type": "Feature", "properties": { "stop_name": "Kvithylla", "stop_desc": null, "wheelchair_boarding": null, "vehicle_type": 700, "bus_lines": "5505" }, "geometry": { "type": "Point", "coordinates": [ 9.90509, 63.561 ] } },
{ "type": "Feature", "properties": { "stop_name": "Kvithylla", "stop_desc": null, "wheelchair_boarding": null, "vehicle_type": 700, "bus_lines": "5501, 5505" }, "geometry": { "type": "Point", "coordinates": [ 9.90493, 63.56096 ] } },
{ "type": "Feature", "properties": { "stop_name": "Nordstuggu", "stop_desc": null, "wheelchair_boarding": null, "vehicle_type": 700, "bus_lines": "5008" }, "geometry": { "type": "Point", "coordinates": [ 10.303306, 63.164386 ] } },
{ "type": "Feature", "properties": { "stop_name": "Nordstuggu", "stop_desc": null, "wheelchair_boarding": null, "vehicle_type": 700, "bus_lines": "5008" }, "geometry": { "type": "Point", "coordinates": [ 10.30336, 63.164394 ] } },
{ "type": "Feature", "properties": { "stop_name": "Buvik kirke", "stop_desc": null, "wheelchair_boarding": null, "vehicle_type": 700, "bus_lines": "5109" }, "geometry": { "type": "Point", "coordinates": [ 10.187521, 63.309722 ] } },
{ "type": "Feature", "properties": { "stop_name": "Eventyrskogen", "stop_desc": null, "wheelchair_boarding": null, "vehicle_type": 700, "bus_lines": "92" }, "geometry": { "type": "Point", "coordinates": [ 10.958658, 63.47795 ] } },
{ "type": "Feature", "properties": { "stop_name": "Eventyrskogen", "stop_desc": null, "wheelchair_boarding": null, "vehicle_type": 700, "bus_lines": "92" }, "geometry": { "type": "Point", "coordinates": [ 10.958519, 63.477949 ] } },
{ "type": "Feature", "properties": { "stop_name": "Husbyåsen snuplass", "stop_desc": null, "wheelchair_boarding": null, "vehicle_type": 700, "bus_lines": "92" }, "geometry": { "type": "Point", "coordinates": [ 10.964932, 63.474394 ] } },
{ "type": "Feature", "properties": { "stop_name": "St. Olavs gate", "stop_desc": null, "wheelchair_boarding": null, "vehicle_type": 700, "bus_lines": "999" }, "geometry": { "type": "Point", "coordinates": [ 10.390352, 63.431051 ] } },
{ "type": "Feature", "properties": { "stop_name": "Hagemo", "stop_desc": null, "wheelchair_boarding": null, "vehicle_type": 700, "bus_lines": "76" }, "geometry": { "type": "Point", "coordinates": [ 10.10927, 63.371949 ] } },
{ "type": "Feature", "properties": { "stop_name": "Tråsåvika Camping", "stop_desc": null, "wheelchair_boarding": null, "vehicle_type": 700, "bus_lines": "410, 5107" }, "geometry": { "type": "Point", "coordinates": [ 9.961901, 63.346286 ] } },
{ "type": "Feature", "properties": { "stop_name": "Trøåsen", "stop_desc": null, "wheelchair_boarding": null, "vehicle_type": 700, "bus_lines": "73" }, "geometry": { "type": "Point", "coordinates": [ 10.48825, 63.30794 ] } },
{ "type": "Feature", "properties": { "stop_name": "Trøåsen", "stop_desc": null, "wheelchair_boarding": null, "vehicle_type": 700, "bus_lines": "112, 73" }, "geometry": { "type": "Point", "coordinates": [ 10.48833, 63.30692 ] } },
{ "type": "Feature", "properties": { "stop_name": "Havstadvegen", "stop_desc": null, "wheelchair_boarding": null, "vehicle_type": 700, "bus_lines": "11" }, "geometry": { "type": "Point", "coordinates": [ 10.350431, 63.409678 ] } },
{ "type": "Feature", "properties": { "stop_name": "Granvegen", "stop_desc": null, "wheelchair_boarding": null, "vehicle_type": 700, "bus_lines": "102, 14" }, "geometry": { "type": "Point", "coordinates": [ 10.495009, 63.426755 ] } },
{ "type": "Feature", "properties": { "stop_name": "Granvegen", "stop_desc": null, "wheelchair_boarding": null, "vehicle_type": 700, "bus_lines": "14" }, "geometry": { "type": "Point", "coordinates": [ 10.495001, 63.426643 ] } },
{ "type": "Feature", "properties": { "stop_name": "Reinsgrenda", "stop_desc": null, "wheelchair_boarding": null, "vehicle_type": 700, "bus_lines": "5501, 5505" }, "geometry": { "type": "Point", "coordinates": [ 9.926037, 63.545818 ] } },
{ "type": "Feature", "properties": { "stop_name": "Ugla", "stop_desc": null, "wheelchair_boarding": null, "vehicle_type": 900, "bus_lines": "9" }, "geometry": { "type": "Point", "coordinates": [ 10.343952, 63.400601 ] } },
{ "type": "Feature", "properties": { "stop_name": "Fosslia Fjellhall", "stop_desc": null, "wheelchair_boarding": null, "vehicle_type": 700, "bus_lines": "7702, 7703, 90, 91" }, "geometry": { "type": "Point", "coordinates": [ 10.931453, 63.478257 ] } },
{ "type": "Feature", "properties": { "stop_name": "Sigurd Jarls veg", "stop_desc": null, "wheelchair_boarding": null, "vehicle_type": 700, "bus_lines": "7702, 7703, 7711, 90, 91, 92" }, "geometry": { "type": "Point", "coordinates": [ 10.935291, 63.470612 ] } },
{ "type": "Feature", "properties": { "stop_name": "Tangen sør", "stop_desc": null, "wheelchair_boarding": null, "vehicle_type": 700, "bus_lines": "311, 70, 90, 91, 92" }, "geometry": { "type": "Point", "coordinates": [ 10.907916, 63.469959 ] } },
{ "type": "Feature", "properties": { "stop_name": "Julseth Østre", "stop_desc": null, "wheelchair_boarding": null, "vehicle_type": 700, "bus_lines": "430, 7701" }, "geometry": { "type": "Point", "coordinates": [ 10.984703, 63.39231 ] } },
{ "type": "Feature", "properties": { "stop_name": "Brennmoen", "stop_desc": null, "wheelchair_boarding": null, "vehicle_type": 700, "bus_lines": "430, 7706" }, "geometry": { "type": "Point", "coordinates": [ 11.07284, 63.371847 ] } },
{ "type": "Feature", "properties": { "stop_name": "Jullum", "stop_desc": null, "wheelchair_boarding": null, "vehicle_type": 700, "bus_lines": "430, 7701, 7706, 7707" }, "geometry": { "type": "Point", "coordinates": [ 10.939556, 63.407896 ] } },
{ "type": "Feature", "properties": { "stop_name": "Lerbakken", "stop_desc": null, "wheelchair_boarding": null, "vehicle_type": 700, "bus_lines": "430, 7701, 7707" }, "geometry": { "type": "Point", "coordinates": [ 10.932475, 63.416739 ] } },
{ "type": "Feature", "properties": { "stop_name": "Vessetvegen", "stop_desc": null, "wheelchair_boarding": null, "vehicle_type": 700, "bus_lines": "430, 7701, 7706" }, "geometry": { "type": "Point", "coordinates": [ 11.043631, 63.394371 ] } },
{ "type": "Feature", "properties": { "stop_name": "Sætnan", "stop_desc": null, "wheelchair_boarding": null, "vehicle_type": 700, "bus_lines": "430, 7701, 7706" }, "geometry": { "type": "Point", "coordinates": [ 11.011208, 63.394521 ] } },
{ "type": "Feature", "properties": { "stop_name": "Julan", "stop_desc": null, "wheelchair_boarding": null, "vehicle_type": 700, "bus_lines": "430, 7707" }, "geometry": { "type": "Point", "coordinates": [ 10.937075, 63.410387 ] } },
{ "type": "Feature", "properties": { "stop_name": "Jullum bru", "stop_desc": null, "wheelchair_boarding": null, "vehicle_type": 700, "bus_lines": "430" }, "geometry": { "type": "Point", "coordinates": [ 10.945934, 63.401405 ] } },
{ "type": "Feature", "properties": { "stop_name": "Julseth Østre", "stop_desc": null, "wheelchair_boarding": null, "vehicle_type": 700, "bus_lines": "430, 7706" }, "geometry": { "type": "Point", "coordinates": [ 10.984848, 63.392378 ] } },
{ "type": "Feature", "properties": { "stop_name": "Julan", "stop_desc": null, "wheelchair_boarding": null, "vehicle_type": 700, "bus_lines": "430, 7701, 7706" }, "geometry": { "type": "Point", "coordinates": [ 10.936992, 63.410594 ] } },
{ "type": "Feature", "properties": { "stop_name": "Vollakrysset", "stop_desc": null, "wheelchair_boarding": null, "vehicle_type": 700, "bus_lines": "350" }, "geometry": { "type": "Point", "coordinates": [ 10.201199, 63.548642 ] } },
{ "type": "Feature", "properties": { "stop_name": "Fagerli vegdele", "stop_desc": "Fagerli vegdele øst", "wheelchair_boarding": null, "vehicle_type": 700, "bus_lines": "452" }, "geometry": { "type": "Point", "coordinates": [ 10.182717, 63.557621 ] } },
{ "type": "Feature", "properties": { "stop_name": "Skjellvegen", "stop_desc": null, "wheelchair_boarding": null, "vehicle_type": 700, "bus_lines": "5106" }, "geometry": { "type": "Point", "coordinates": [ 10.041, 63.263007 ] } },
{ "type": "Feature", "properties": { "stop_name": "Fabrikkmyra", "stop_desc": null, "wheelchair_boarding": null, "vehicle_type": 700, "bus_lines": "5107" }, "geometry": { "type": "Point", "coordinates": [ 10.02091, 63.324166 ] } },
{ "type": "Feature", "properties": { "stop_name": "Sjetnteigen", "stop_desc": null, "wheelchair_boarding": null, "vehicle_type": 700, "bus_lines": "5107" }, "geometry": { "type": "Point", "coordinates": [ 9.967872, 63.323491 ] } },
{ "type": "Feature", "properties": { "stop_name": "Rossmovegen", "stop_desc": null, "wheelchair_boarding": null, "vehicle_type": 700, "bus_lines": "410, 5107" }, "geometry": { "type": "Point", "coordinates": [ 10.041871, 63.346021 ] } },
{ "type": "Feature", "properties": { "stop_name": "Aunbygda snuplass", "stop_desc": null, "wheelchair_boarding": null, "vehicle_type": 700, "bus_lines": "5111" }, "geometry": { "type": "Point", "coordinates": [ 10.038838, 63.223278 ] } },
{ "type": "Feature", "properties": { "stop_name": "Selbuvegen 1303", "stop_desc": null, "wheelchair_boarding": null, "vehicle_type": 700, "bus_lines": "430" }, "geometry": { "type": "Point", "coordinates": [ 11.073905, 63.387565 ] } },
{ "type": "Feature", "properties": { "stop_name": "Leirbakken", "stop_desc": null, "wheelchair_boarding": null, "vehicle_type": 700, "bus_lines": "7708" }, "geometry": { "type": "Point", "coordinates": [ 11.174726, 63.47107 ] } },
{ "type": "Feature", "properties": { "stop_name": "Kregnesmoen", "stop_desc": null, "wheelchair_boarding": null, "vehicle_type": 700, "bus_lines": "5009" }, "geometry": { "type": "Point", "coordinates": [ 10.237557, 63.237542 ] } },
{ "type": "Feature", "properties": { "stop_name": "Melhusvegen", "stop_desc": null, "wheelchair_boarding": null, "vehicle_type": 700, "bus_lines": "216" }, "geometry": { "type": "Point", "coordinates": [ 10.294635, 63.313836 ] } },
{ "type": "Feature", "properties": { "stop_name": "Kregnesmoen", "stop_desc": null, "wheelchair_boarding": null, "vehicle_type": 700, "bus_lines": "5009" }, "geometry": { "type": "Point", "coordinates": [ 10.237654, 63.237489 ] } },
{ "type": "Feature", "properties": { "stop_name": "Rognheim", "stop_desc": "Buss for trikk", "wheelchair_boarding": null, "vehicle_type": 700, "bus_lines": "999" }, "geometry": { "type": "Point", "coordinates": [ 10.3715, 63.39967 ] } },
{ "type": "Feature", "properties": { "stop_name": "Rognheim", "stop_desc": "Buss for trikk", "wheelchair_boarding": null, "vehicle_type": 700, "bus_lines": "999" }, "geometry": { "type": "Point", "coordinates": [ 10.371469, 63.399749 ] } },
{ "type": "Feature", "properties": { "stop_name": "Hoem", "stop_desc": "Buss for trikk", "wheelchair_boarding": null, "vehicle_type": 700, "bus_lines": "999" }, "geometry": { "type": "Point", "coordinates": [ 10.382777, 63.405573 ] } },
{ "type": "Feature", "properties": { "stop_name": "Hoem", "stop_desc": "Buss for trikk", "wheelchair_boarding": null, "vehicle_type": 700, "bus_lines": "999" }, "geometry": { "type": "Point", "coordinates": [ 10.382879, 63.406137 ] } },
{ "type": "Feature", "properties": { "stop_name": "Marienborg", "stop_desc": "Buss for trikk", "wheelchair_boarding": null, "vehicle_type": 700, "bus_lines": "999" }, "geometry": { "type": "Point", "coordinates": [ 10.37722, 63.42 ] } },
{ "type": "Feature", "properties": { "stop_name": "Marienborg", "stop_desc": "Buss for trikk", "wheelchair_boarding": null, "vehicle_type": 700, "bus_lines": "999" }, "geometry": { "type": "Point", "coordinates": [ 10.377574, 63.419179 ] } },
{ "type": "Feature", "properties": { "stop_name": "Trondheim hurtigbåtterminal", "stop_desc": null, "wheelchair_boarding": null, "vehicle_type": 1000, "bus_lines": "805" }, "geometry": { "type": "Point", "coordinates": [ 10.39684, 63.437948 ] } },
{ "type": "Feature", "properties": { "stop_name": "Leangenbukta", "stop_desc": null, "wheelchair_boarding": null, "vehicle_type": 700, "bus_lines": "13, 20, 54" }, "geometry": { "type": "Point", "coordinates": [ 10.465266, 63.440533 ] } },
{ "type": "Feature", "properties": { "stop_name": "Sverresborg", "stop_desc": null, "wheelchair_boarding": null, "vehicle_type": 700, "bus_lines": "11, 13, 50" }, "geometry": { "type": "Point", "coordinates": [ 10.353694, 63.417195 ] } },
{ "type": "Feature", "properties": { "stop_name": "Pirbadet", "stop_desc": null, "wheelchair_boarding": null, "vehicle_type": 700, "bus_lines": "21, 23, 28" }, "geometry": { "type": "Point", "coordinates": [ 10.403141, 63.44045 ] } },
{ "type": "Feature", "properties": { "stop_name": "Tiller vgs.", "stop_desc": null, "wheelchair_boarding": null, "vehicle_type": 700, "bus_lines": "15, 23, 50" }, "geometry": { "type": "Point", "coordinates": [ 10.378502, 63.358058 ] } },
{ "type": "Feature", "properties": { "stop_name": "Pirbadet", "stop_desc": null, "wheelchair_boarding": null, "vehicle_type": 700, "bus_lines": "21, 23, 28" }, "geometry": { "type": "Point", "coordinates": [ 10.402333, 63.441077 ] } },
{ "type": "Feature", "properties": { "stop_name": "Heimdalsvegen 73", "stop_desc": null, "wheelchair_boarding": null, "vehicle_type": 700, "bus_lines": "216, 77" }, "geometry": { "type": "Point", "coordinates": [ 10.346098, 63.343918 ] } },
{ "type": "Feature", "properties": { "stop_name": "Tiller vgs.", "stop_desc": null, "wheelchair_boarding": null, "vehicle_type": 700, "bus_lines": "15, 23, 50, 53, 54" }, "geometry": { "type": "Point", "coordinates": [ 10.378161, 63.358636 ] } },
{ "type": "Feature", "properties": { "stop_name": "Heimdalsvegen 73", "stop_desc": null, "wheelchair_boarding": null, "vehicle_type": 700, "bus_lines": "216, 77" }, "geometry": { "type": "Point", "coordinates": [ 10.346624, 63.344075 ] } },
{ "type": "Feature", "properties": { "stop_name": "Planetringen", "stop_desc": null, "wheelchair_boarding": null, "vehicle_type": 700, "bus_lines": "79" }, "geometry": { "type": "Point", "coordinates": [ 10.638542, 63.432518 ] } },
{ "type": "Feature", "properties": { "stop_name": "Planetringen", "stop_desc": null, "wheelchair_boarding": null, "vehicle_type": 700, "bus_lines": "79" }, "geometry": { "type": "Point", "coordinates": [ 10.637346, 63.432516 ] } },
{ "type": "Feature", "properties": { "stop_name": "Sluppenvegen", "stop_desc": null, "wheelchair_boarding": null, "vehicle_type": 700, "bus_lines": "15, 311, 53, 54, 79" }, "geometry": { "type": "Point", "coordinates": [ 10.396349, 63.396896 ] } },
{ "type": "Feature", "properties": { "stop_name": "Sluppenvegen", "stop_desc": null, "wheelchair_boarding": null, "vehicle_type": 700, "bus_lines": "15, 311, 79" }, "geometry": { "type": "Point", "coordinates": [ 10.397598, 63.39726 ] } },
{ "type": "Feature", "properties": { "stop_name": "Prestgårdskrysset", "stop_desc": null, "wheelchair_boarding": null, "vehicle_type": 700, "bus_lines": "112, 214, 23, 72, 83" }, "geometry": { "type": "Point", "coordinates": [ 10.474329, 63.299168 ] } },
{ "type": "Feature", "properties": { "stop_name": "Prestgårdskrysset", "stop_desc": null, "wheelchair_boarding": null, "vehicle_type": 700, "bus_lines": "214, 72, 83" }, "geometry": { "type": "Point", "coordinates": [ 10.476475, 63.298348 ] } },
{ "type": "Feature", "properties": { "stop_name": "Presthus", "stop_desc": null, "wheelchair_boarding": null, "vehicle_type": 700, "bus_lines": "107, 116, 202, 25, 54, 70" }, "geometry": { "type": "Point", "coordinates": [ 10.518808, 63.423731 ] } },
{ "type": "Feature", "properties": { "stop_name": "Presthus", "stop_desc": null, "wheelchair_boarding": null, "vehicle_type": 700, "bus_lines": "202, 211, 25, 70" }, "geometry": { "type": "Point", "coordinates": [ 10.519554, 63.423752 ] } },
{ "type": "Feature", "properties": { "stop_name": "Presthusaunet", "stop_desc": null, "wheelchair_boarding": null, "vehicle_type": 700, "bus_lines": "14, 70" }, "geometry": { "type": "Point", "coordinates": [ 10.494907, 63.419583 ] } },
{ "type": "Feature", "properties": { "stop_name": "Presthusaunet", "stop_desc": null, "wheelchair_boarding": null, "vehicle_type": 700, "bus_lines": "102, 14" }, "geometry": { "type": "Point", "coordinates": [ 10.494844, 63.418346 ] } },
{ "type": "Feature", "properties": { "stop_name": "Tjønnlia", "stop_desc": null, "wheelchair_boarding": null, "vehicle_type": 700, "bus_lines": "107" }, "geometry": { "type": "Point", "coordinates": [ 10.509949, 63.401839 ] } },
{ "type": "Feature", "properties": { "stop_name": "Nidarosdomen", "stop_desc": null, "wheelchair_boarding": null, "vehicle_type": 700, "bus_lines": "1, 10, 101, 103, 104, 109, 11, 110, 111, 112, 113, 115, 12, 18, 2, 20, 22, 23, 25, 28, 3, 53, 54, 70, 71, 72, 79" }, "geometry": { "type": "Point", "coordinates": [ 10.393372, 63.425815 ] } },
{ "type": "Feature", "properties": { "stop_name": "Nidarosdomen", "stop_desc": null, "wheelchair_boarding": null, "vehicle_type": 700, "bus_lines": "1, 10, 102, 11, 12, 18, 2, 20, 22, 23, 25, 28, 3, 70, 71, 72, 79" }, "geometry": { "type": "Point", "coordinates": [ 10.393608, 63.426072 ] } },
{ "type": "Feature", "properties": { "stop_name": "Prinsens gate", "stop_desc": "ved AtB Kundesenter", "wheelchair_boarding": null, "vehicle_type": 700, "bus_lines": "1, 10, 102, 12, 2, 20, 21, 22, 23, 25, 70, 71, 72, 75, 76, 79" }, "geometry": { "type": "Point", "coordinates": [ 10.392115, 63.431194 ] } },
{ "type": "Feature", "properties": { "stop_name": "Prinsens gate", "stop_desc": "ved Bunnpris", "wheelchair_boarding": null, "vehicle_type": 700, "bus_lines": "1, 10, 103, 109, 111, 12, 2, 20, 22, 23, 25, 54, 70, 71, 79" }, "geometry": { "type": "Point", "coordinates": [ 10.391899, 63.430874 ] } },
{ "type": "Feature", "properties": { "stop_name": "St. Olavs hospital øst", "stop_desc": "ved Nevrosenteret", "wheelchair_boarding": null, "vehicle_type": 700, "bus_lines": "101, 12, 13, 20, 23, 310, 340, 350, 420, 430, 440, 452, 470, 480, 51, 52, 70" }, "geometry": { "type": "Point", "coordinates": [ 10.390046, 63.420757 ] } },
{ "type": "Feature", "properties": { "stop_name": "St. Olavs hospital øst", "stop_desc": "ved Kvinne-barn-senteret", "wheelchair_boarding": null, "vehicle_type": 700, "bus_lines": "12, 13, 20, 23, 310, 340, 350, 420, 430, 440, 452, 470, 480, 51, 52, 70" }, "geometry": { "type": "Point", "coordinates": [ 10.390672, 63.420565 ] } },
{ "type": "Feature", "properties": { "stop_name": "Tonstadgrenda", "stop_desc": null, "wheelchair_boarding": null, "vehicle_type": 700, "bus_lines": "111, 15, 16, 45, 51" }, "geometry": { "type": "Point", "coordinates": [ 10.38488, 63.36186 ] } },
{ "type": "Feature", "properties": { "stop_name": "Tonstadgrenda", "stop_desc": null, "wheelchair_boarding": null, "vehicle_type": 700, "bus_lines": "15, 16, 45, 51" }, "geometry": { "type": "Point", "coordinates": [ 10.387116, 63.361794 ] } },
{ "type": "Feature", "properties": { "stop_name": "Hesthagen", "stop_desc": null, "wheelchair_boarding": null, "vehicle_type": 700, "bus_lines": "1, 10, 11, 13, 18, 2, 20, 51, 70, 71, 72, 79" }, "geometry": { "type": "Point", "coordinates": [ 10.398155, 63.415486 ] } },
{ "type": "Feature", "properties": { "stop_name": "Tonstadkrysset", "stop_desc": "bak Tonstadkrysset 1", "wheelchair_boarding": null, "vehicle_type": 700, "bus_lines": "10, 111, 15, 18, 40, 45, 54, 71" }, "geometry": { "type": "Point", "coordinates": [ 10.382319, 63.370683 ] } },
{ "type": "Feature", "properties": { "stop_name": "Tonstadkrysset", "stop_desc": "i Kolstadveien", "wheelchair_boarding": null, "vehicle_type": 700, "bus_lines": "104, 2, 23, 40" }, "geometry": { "type": "Point", "coordinates": [ 10.37405, 63.370393 ] } },
{ "type": "Feature", "properties": { "stop_name": "Tonstadkrysset", "stop_desc": "ved Byggmakker", "wheelchair_boarding": null, "vehicle_type": 700, "bus_lines": "23" }, "geometry": { "type": "Point", "coordinates": [ 10.376273, 63.369068 ] } },
{ "type": "Feature", "properties": { "stop_name": "Rakbjørg gård", "stop_desc": null, "wheelchair_boarding": null, "vehicle_type": 700, "bus_lines": "504, 505" }, "geometry": { "type": "Point", "coordinates": [ 10.194124, 63.257602 ] } },
{ "type": "Feature", "properties": { "stop_name": "Rakbjørg gård", "stop_desc": null, "wheelchair_boarding": null, "vehicle_type": 700, "bus_lines": "504" }, "geometry": { "type": "Point", "coordinates": [ 10.194167, 63.25752 ] } },
{ "type": "Feature", "properties": { "stop_name": "Henrik Ourens veg", "stop_desc": null, "wheelchair_boarding": null, "vehicle_type": 700, "bus_lines": "12" }, "geometry": { "type": "Point", "coordinates": [ 10.445394, 63.415012 ] } },
{ "type": "Feature", "properties": { "stop_name": "Henrik Ourens veg", "stop_desc": null, "wheelchair_boarding": null, "vehicle_type": 700, "bus_lines": "113, 12" }, "geometry": { "type": "Point", "coordinates": [ 10.446308, 63.416093 ] } },
{ "type": "Feature", "properties": { "stop_name": "Ramstad", "stop_desc": null, "wheelchair_boarding": null, "vehicle_type": 700, "bus_lines": "10, 113" }, "geometry": { "type": "Point", "coordinates": [ 10.476113, 63.412144 ] } },
{ "type": "Feature", "properties": { "stop_name": "Ramstad", "stop_desc": null, "wheelchair_boarding": null, "vehicle_type": 700, "bus_lines": "10" }, "geometry": { "type": "Point", "coordinates": [ 10.476094, 63.412237 ] } },
{ "type": "Feature", "properties": { "stop_name": "Torgaardssletta", "stop_desc": null, "wheelchair_boarding": null, "vehicle_type": 700, "bus_lines": "112, 23, 72" }, "geometry": { "type": "Point", "coordinates": [ 10.3643, 63.328707 ] } },
{ "type": "Feature", "properties": { "stop_name": "Torgaardssletta", "stop_desc": null, "wheelchair_boarding": null, "vehicle_type": 700, "bus_lines": "72" }, "geometry": { "type": "Point", "coordinates": [ 10.363635, 63.329533 ] } },
{ "type": "Feature", "properties": { "stop_name": "Randlia", "stop_desc": null, "wheelchair_boarding": null, "vehicle_type": 700, "bus_lines": "74" }, "geometry": { "type": "Point", "coordinates": [ 10.441976, 63.351126 ] } },
{ "type": "Feature", "properties": { "stop_name": "Randlia", "stop_desc": null, "wheelchair_boarding": null, "vehicle_type": 700, "bus_lines": "74" }, "geometry": { "type": "Point", "coordinates": [ 10.441985, 63.351184 ] } },
{ "type": "Feature", "properties": { "stop_name": "Ranheim fabrikker E6", "stop_desc": null, "wheelchair_boarding": null, "vehicle_type": 700, "bus_lines": "311, 430" }, "geometry": { "type": "Point", "coordinates": [ 10.535543, 63.421942 ] } },
{ "type": "Feature", "properties": { "stop_name": "Ranheim fabrikker", "stop_desc": null, "wheelchair_boarding": null, "vehicle_type": 700, "bus_lines": "211, 25, 311, 41, 70" }, "geometry": { "type": "Point", "coordinates": [ 10.536042, 63.421847 ] } },
{ "type": "Feature", "properties": { "stop_name": "Ranheim fabrikker", "stop_desc": null, "wheelchair_boarding": null, "vehicle_type": 700, "bus_lines": "107, 116, 25, 41, 54, 70, 79" }, "geometry": { "type": "Point", "coordinates": [ 10.536076, 63.421728 ] } },
{ "type": "Feature", "properties": { "stop_name": "Ranheim idrettsplass", "stop_desc": null, "wheelchair_boarding": null, "vehicle_type": 700, "bus_lines": "1, 201, 202, 41, 44, 54" }, "geometry": { "type": "Point", "coordinates": [ 10.522386, 63.427952 ] } },
{ "type": "Feature", "properties": { "stop_name": "Ranheim idrettsplass", "stop_desc": null, "wheelchair_boarding": null, "vehicle_type": 700, "bus_lines": "1, 106, 201, 202, 41, 44" }, "geometry": { "type": "Point", "coordinates": [ 10.52388, 63.427672 ] } },
{ "type": "Feature", "properties": { "stop_name": "Torgardshaugen", "stop_desc": null, "wheelchair_boarding": null, "vehicle_type": 700, "bus_lines": "72" }, "geometry": { "type": "Point", "coordinates": [ 10.376536, 63.322643 ] } },
{ "type": "Feature", "properties": { "stop_name": "Torgardshaugen", "stop_desc": null, "wheelchair_boarding": null, "vehicle_type": 700, "bus_lines": "112, 23, 72" }, "geometry": { "type": "Point", "coordinates": [ 10.376544, 63.322777 ] } },
{ "type": "Feature", "properties": { "stop_name": "Herlofsonløypa", "stop_desc": null, "wheelchair_boarding": null, "vehicle_type": 900, "bus_lines": "9" }, "geometry": { "type": "Point", "coordinates": [ 10.320049, 63.405185 ] } },
{ "type": "Feature", "properties": { "stop_name": "Herlofsonløypa", "stop_desc": null, "wheelchair_boarding": null, "vehicle_type": 900, "bus_lines": "9" }, "geometry": { "type": "Point", "coordinates": [ 10.319332, 63.405132 ] } },
{ "type": "Feature", "properties": { "stop_name": "Hermanstad", "stop_desc": null, "wheelchair_boarding": null, "vehicle_type": 700, "bus_lines": "5006" }, "geometry": { "type": "Point", "coordinates": [ 10.250429, 63.20291 ] } },
{ "type": "Feature", "properties": { "stop_name": "Hermanstad", "stop_desc": null, "wheelchair_boarding": null, "vehicle_type": 700, "bus_lines": "5006" }, "geometry": { "type": "Point", "coordinates": [ 10.250459, 63.202729 ] } },
{ "type": "Feature", "properties": { "stop_name": "Hermstad", "stop_desc": null, "wheelchair_boarding": null, "vehicle_type": 700, "bus_lines": "5501, 5504" }, "geometry": { "type": "Point", "coordinates": [ 10.094901, 63.56141 ] } },
{ "type": "Feature", "properties": { "stop_name": "Hermstad", "stop_desc": null, "wheelchair_boarding": null, "vehicle_type": 700, "bus_lines": "5504, 552" }, "geometry": { "type": "Point", "coordinates": [ 10.095701, 63.561661 ] } },
{ "type": "Feature", "properties": { "stop_name": "Torp", "stop_desc": null, "wheelchair_boarding": null, "vehicle_type": 700, "bus_lines": "116, 70" }, "geometry": { "type": "Point", "coordinates": [ 10.690757, 63.434042 ] } },
{ "type": "Feature", "properties": { "stop_name": "Torp", "stop_desc": null, "wheelchair_boarding": null, "vehicle_type": 700, "bus_lines": "70" }, "geometry": { "type": "Point", "coordinates": [ 10.693308, 63.433871 ] } },
{ "type": "Feature", "properties": { "stop_name": "Rate", "stop_desc": null, "wheelchair_boarding": null, "vehicle_type": 700, "bus_lines": "10" }, "geometry": { "type": "Point", "coordinates": [ 10.397779, 63.386971 ] } },
{ "type": "Feature", "properties": { "stop_name": "Raudberget", "stop_desc": null, "wheelchair_boarding": null, "vehicle_type": 700, "bus_lines": "5502" }, "geometry": { "type": "Point", "coordinates": [ 9.990169, 63.489683 ] } },
{ "type": "Feature", "properties": { "stop_name": "Tors veg", "stop_desc": null, "wheelchair_boarding": null, "vehicle_type": 700, "bus_lines": "11, 22, 51" }, "geometry": { "type": "Point", "coordinates": [ 10.427112, 63.404835 ] } },
{ "type": "Feature", "properties": { "stop_name": "Reinsjøen", "stop_desc": null, "wheelchair_boarding": null, "vehicle_type": 700, "bus_lines": "5504, 5505" }, "geometry": { "type": "Point", "coordinates": [ 10.033396, 63.496855 ] } },
{ "type": "Feature", "properties": { "stop_name": "Torvet", "stop_desc": null, "wheelchair_boarding": null, "vehicle_type": 700, "bus_lines": "5501" }, "geometry": { "type": "Point", "coordinates": [ 9.92479, 63.551374 ] } },
{ "type": "Feature", "properties": { "stop_name": "Torvet", "stop_desc": null, "wheelchair_boarding": null, "vehicle_type": 700, "bus_lines": "5505" }, "geometry": { "type": "Point", "coordinates": [ 9.924903, 63.551563 ] } },
{ "type": "Feature", "properties": { "stop_name": "Torvmyra", "stop_desc": null, "wheelchair_boarding": null, "vehicle_type": 700, "bus_lines": "15, 16, 45, 51" }, "geometry": { "type": "Point", "coordinates": [ 10.391673, 63.361336 ] } },
{ "type": "Feature", "properties": { "stop_name": "Torvmyra", "stop_desc": null, "wheelchair_boarding": null, "vehicle_type": 700, "bus_lines": "111, 15, 16, 45, 51" }, "geometry": { "type": "Point", "coordinates": [ 10.389915, 63.361355 ] } },
{ "type": "Feature", "properties": { "stop_name": "Torvtaket", "stop_desc": null, "wheelchair_boarding": null, "vehicle_type": 700, "bus_lines": "111, 15, 16, 23, 45, 50, 51, 53, 54" }, "geometry": { "type": "Point", "coordinates": [ 10.376898, 63.348614 ] } },
{ "type": "Feature", "properties": { "stop_name": "Torvtaket", "stop_desc": null, "wheelchair_boarding": null, "vehicle_type": 700, "bus_lines": "15, 16, 23, 45, 50, 51" }, "geometry": { "type": "Point", "coordinates": [ 10.377333, 63.348407 ] } },
{ "type": "Feature", "properties": { "stop_name": "Hestsjøen", "stop_desc": null, "wheelchair_boarding": null, "vehicle_type": 700, "bus_lines": "215, 217, 78" }, "geometry": { "type": "Point", "coordinates": [ 10.272276, 63.3564 ] } },
{ "type": "Feature", "properties": { "stop_name": "Hestsjøen", "stop_desc": null, "wheelchair_boarding": null, "vehicle_type": 700, "bus_lines": "215, 78" }, "geometry": { "type": "Point", "coordinates": [ 10.271495, 63.35636 ] } },
{ "type": "Feature", "properties": { "stop_name": "Hesttrø", "stop_desc": null, "wheelchair_boarding": null, "vehicle_type": 700, "bus_lines": "214, 72, 83" }, "geometry": { "type": "Point", "coordinates": [ 10.483457, 63.298166 ] } },
{ "type": "Feature", "properties": { "stop_name": "Hesttrø", "stop_desc": null, "wheelchair_boarding": null, "vehicle_type": 700, "bus_lines": "112, 214, 23, 72, 83" }, "geometry": { "type": "Point", "coordinates": [ 10.483089, 63.297933 ] } },
{ "type": "Feature", "properties": { "stop_name": "Reppe snuplass", "stop_desc": null, "wheelchair_boarding": null, "vehicle_type": 700, "bus_lines": "107, 211, 41" }, "geometry": { "type": "Point", "coordinates": [ 10.557953, 63.415995 ] } },
{ "type": "Feature", "properties": { "stop_name": "Hesttrøa", "stop_desc": null, "wheelchair_boarding": null, "vehicle_type": 700, "bus_lines": "5004" }, "geometry": { "type": "Point", "coordinates": [ 10.332489, 63.294586 ] } },
{ "type": "Feature", "properties": { "stop_name": "Hesttrøa", "stop_desc": null, "wheelchair_boarding": null, "vehicle_type": 700, "bus_lines": "5001, 82" }, "geometry": { "type": "Point", "coordinates": [ 10.332309, 63.294615 ] } },
{ "type": "Feature", "properties": { "stop_name": "Tronghaugen", "stop_desc": null, "wheelchair_boarding": null, "vehicle_type": 700, "bus_lines": "350, 452, 5505" }, "geometry": { "type": "Point", "coordinates": [ 10.091272, 63.497462 ] } },
{ "type": "Feature", "properties": { "stop_name": "Tronghaugen", "stop_desc": null, "wheelchair_boarding": null, "vehicle_type": 700, "bus_lines": "350, 452, 5505" }, "geometry": { "type": "Point", "coordinates": [ 10.09116, 63.497556 ] } },
{ "type": "Feature", "properties": { "stop_name": "Restadveien", "stop_desc": null, "wheelchair_boarding": null, "vehicle_type": 700, "bus_lines": "504" }, "geometry": { "type": "Point", "coordinates": [ 10.054511, 63.164393 ] } },
{ "type": "Feature", "properties": { "stop_name": "Restadveien", "stop_desc": null, "wheelchair_boarding": null, "vehicle_type": 700, "bus_lines": "5005, 504" }, "geometry": { "type": "Point", "coordinates": [ 10.05389, 63.164535 ] } },
{ "type": "Feature", "properties": { "stop_name": "Leangen", "stop_desc": null, "wheelchair_boarding": null, "vehicle_type": 700, "bus_lines": "1, 107, 116, 14, 25, 311, 430, 70, 79" }, "geometry": { "type": "Point", "coordinates": [ 10.477073, 63.431489 ] } },
{ "type": "Feature", "properties": { "stop_name": "Leangen", "stop_desc": null, "wheelchair_boarding": null, "vehicle_type": 700, "bus_lines": "1, 14, 25, 311, 430, 70, 79" }, "geometry": { "type": "Point", "coordinates": [ 10.476167, 63.431851 ] } },
{ "type": "Feature", "properties": { "stop_name": "Rian", "stop_desc": null, "wheelchair_boarding": null, "vehicle_type": 700, "bus_lines": "410, 4101" }, "geometry": { "type": "Point", "coordinates": [ 9.953675, 63.342487 ] } },
{ "type": "Feature", "properties": { "stop_name": "Rian", "stop_desc": null, "wheelchair_boarding": null, "vehicle_type": 700, "bus_lines": "410" }, "geometry": { "type": "Point", "coordinates": [ 9.954319, 63.342598 ] } },
{ "type": "Feature", "properties": { "stop_name": "Riaunet", "stop_desc": null, "wheelchair_boarding": null, "vehicle_type": 700, "bus_lines": "511, 5110, 5111" }, "geometry": { "type": "Point", "coordinates": [ 10.057981, 63.299591 ] } },
{ "type": "Feature", "properties": { "stop_name": "Riaunet", "stop_desc": null, "wheelchair_boarding": null, "vehicle_type": 700, "bus_lines": "5106, 511, 5110, 5111" }, "geometry": { "type": "Point", "coordinates": [ 10.057718, 63.299312 ] } },
{ "type": "Feature", "properties": { "stop_name": "Travbanevegen", "stop_desc": null, "wheelchair_boarding": null, "vehicle_type": 700, "bus_lines": "106, 20" }, "geometry": { "type": "Point", "coordinates": [ 10.471615, 63.43317 ] } },
{ "type": "Feature", "properties": { "stop_name": "Travbanevegen", "stop_desc": null, "wheelchair_boarding": null, "vehicle_type": 700, "bus_lines": "20, 54" }, "geometry": { "type": "Point", "coordinates": [ 10.469944, 63.433254 ] } },
{ "type": "Feature", "properties": { "stop_name": "Ribygda", "stop_desc": null, "wheelchair_boarding": null, "vehicle_type": 700, "bus_lines": "5106" }, "geometry": { "type": "Point", "coordinates": [ 10.028501, 63.278179 ] } },
{ "type": "Feature", "properties": { "stop_name": "Trolla", "stop_desc": null, "wheelchair_boarding": null, "vehicle_type": 700, "bus_lines": "350, 452, 75, 76" }, "geometry": { "type": "Point", "coordinates": [ 10.310548, 63.451443 ] } },
{ "type": "Feature", "properties": { "stop_name": "Trolla", "stop_desc": null, "wheelchair_boarding": null, "vehicle_type": 700, "bus_lines": "114, 350, 452, 75, 76" }, "geometry": { "type": "Point", "coordinates": [ 10.309398, 63.451897 ] } },
{ "type": "Feature", "properties": { "stop_name": "Ringve museum", "stop_desc": null, "wheelchair_boarding": null, "vehicle_type": 700, "bus_lines": "106, 13, 20" }, "geometry": { "type": "Point", "coordinates": [ 10.456686, 63.449355 ] } },
{ "type": "Feature", "properties": { "stop_name": "Ringve museum", "stop_desc": null, "wheelchair_boarding": null, "vehicle_type": 700, "bus_lines": "13, 20, 54" }, "geometry": { "type": "Point", "coordinates": [ 10.456479, 63.449479 ] } },
{ "type": "Feature", "properties": { "stop_name": "Ringve skole", "stop_desc": null, "wheelchair_boarding": null, "vehicle_type": 700, "bus_lines": "15, 20, 54" }, "geometry": { "type": "Point", "coordinates": [ 10.444753, 63.449758 ] } },
{ "type": "Feature", "properties": { "stop_name": "Ringve skole", "stop_desc": null, "wheelchair_boarding": null, "vehicle_type": 700, "bus_lines": "106, 15, 20" }, "geometry": { "type": "Point", "coordinates": [ 10.446037, 63.449654 ] } },
{ "type": "Feature", "properties": { "stop_name": "Ringvål", "stop_desc": null, "wheelchair_boarding": null, "vehicle_type": 700, "bus_lines": "215" }, "geometry": { "type": "Point", "coordinates": [ 10.249697, 63.352014 ] } },
{ "type": "Feature", "properties": { "stop_name": "Ringvål", "stop_desc": null, "wheelchair_boarding": null, "vehicle_type": 700, "bus_lines": "78" }, "geometry": { "type": "Point", "coordinates": [ 10.24971, 63.351945 ] } },
{ "type": "Feature", "properties": { "stop_name": "Ringvål grind", "stop_desc": null, "wheelchair_boarding": null, "vehicle_type": 700, "bus_lines": "215, 78" }, "geometry": { "type": "Point", "coordinates": [ 10.25596, 63.355744 ] } },
{ "type": "Feature", "properties": { "stop_name": "Ringvål grind", "stop_desc": null, "wheelchair_boarding": null, "vehicle_type": 700, "bus_lines": "215, 217, 78" }, "geometry": { "type": "Point", "coordinates": [ 10.256649, 63.35571 ] } },
{ "type": "Feature", "properties": { "stop_name": "Trollahaugen 10", "stop_desc": null, "wheelchair_boarding": null, "vehicle_type": 700, "bus_lines": "114, 21" }, "geometry": { "type": "Point", "coordinates": [ 10.300576, 63.451293 ] } },
{ "type": "Feature", "properties": { "stop_name": "Trollahaugen 2", "stop_desc": null, "wheelchair_boarding": null, "vehicle_type": 700, "bus_lines": "114, 21" }, "geometry": { "type": "Point", "coordinates": [ 10.30123, 63.450257 ] } },
{ "type": "Feature", "properties": { "stop_name": "Trollahaugen 46", "stop_desc": null, "wheelchair_boarding": null, "vehicle_type": 700, "bus_lines": "114, 21" }, "geometry": { "type": "Point", "coordinates": [ 10.302676, 63.451962 ] } },
{ "type": "Feature", "properties": { "stop_name": "Trollahaugen 64", "stop_desc": null, "wheelchair_boarding": null, "vehicle_type": 700, "bus_lines": "114, 21" }, "geometry": { "type": "Point", "coordinates": [ 10.30454, 63.452209 ] } },
{ "type": "Feature", "properties": { "stop_name": "Trondheim S", "stop_desc": null, "wheelchair_boarding": null, "vehicle_type": 700, "bus_lines": "310, 311, 340, 350, 410, 4101, 420, 430, 440, 452, 470, 480" }, "geometry": { "type": "Point", "coordinates": [ 10.402151, 63.436009 ] } },
{ "type": "Feature", "properties": { "stop_name": "Risvollan senter", "stop_desc": null, "wheelchair_boarding": null, "vehicle_type": 700, "bus_lines": "11, 115" }, "geometry": { "type": "Point", "coordinates": [ 10.429554, 63.390575 ] } },
{ "type": "Feature", "properties": { "stop_name": "Risvollan senter", "stop_desc": null, "wheelchair_boarding": null, "vehicle_type": 700, "bus_lines": "11" }, "geometry": { "type": "Point", "coordinates": [ 10.429188, 63.390707 ] } },
{ "type": "Feature", "properties": { "stop_name": "Trondheim S", "stop_desc": null, "wheelchair_boarding": null, "vehicle_type": 700, "bus_lines": "10, 2, 20, 21, 23, 25, 70, 72, 75, 76, 79" }, "geometry": { "type": "Point", "coordinates": [ 10.401263, 63.435855 ] } },
{ "type": "Feature", "properties": { "stop_name": "Trondheim S", "stop_desc": null, "wheelchair_boarding": null, "vehicle_type": 700, "bus_lines": "10, 2, 20, 21, 23, 25, 70, 75, 76, 79" }, "geometry": { "type": "Point", "coordinates": [ 10.400609, 63.435996 ] } },
{ "type": "Feature", "properties": { "stop_name": "Trondheim S", "stop_desc": null, "wheelchair_boarding": null, "vehicle_type": 700, "bus_lines": "310, 311, 340, 350, 410, 420, 430, 440, 452, 470, 480" }, "geometry": { "type": "Point", "coordinates": [ 10.402843, 63.435859 ] } },
{ "type": "Feature", "properties": { "stop_name": "Risvollvegen", "stop_desc": null, "wheelchair_boarding": null, "vehicle_type": 700, "bus_lines": "11, 115, 51" }, "geometry": { "type": "Point", "coordinates": [ 10.423483, 63.394515 ] } },
{ "type": "Feature", "properties": { "stop_name": "Hoeggen skole", "stop_desc": null, "wheelchair_boarding": null, "vehicle_type": 700, "bus_lines": "115, 22" }, "geometry": { "type": "Point", "coordinates": [ 10.433753, 63.401226 ] } },
{ "type": "Feature", "properties": { "stop_name": "Hoeggen skole", "stop_desc": null, "wheelchair_boarding": null, "vehicle_type": 700, "bus_lines": "22" }, "geometry": { "type": "Point", "coordinates": [ 10.433342, 63.401354 ] } },
{ "type": "Feature", "properties": { "stop_name": "Rognbudalen", "stop_desc": null, "wheelchair_boarding": null, "vehicle_type": 700, "bus_lines": "111, 15, 16, 45, 51" }, "geometry": { "type": "Point", "coordinates": [ 10.379518, 63.354256 ] } },
{ "type": "Feature", "properties": { "stop_name": "Rognbudalen", "stop_desc": null, "wheelchair_boarding": null, "vehicle_type": 700, "bus_lines": "15, 16, 45, 51" }, "geometry": { "type": "Point", "coordinates": [ 10.38134, 63.3538 ] } },
{ "type": "Feature", "properties": { "stop_name": "Trondheim Spektrum", "stop_desc": null, "wheelchair_boarding": null, "vehicle_type": 700, "bus_lines": "12" }, "geometry": { "type": "Point", "coordinates": [ 10.377904, 63.426644 ] } },
{ "type": "Feature", "properties": { "stop_name": "Hofstad næringspark", "stop_desc": null, "wheelchair_boarding": null, "vehicle_type": 700, "bus_lines": "340, 440, 5004" }, "geometry": { "type": "Point", "coordinates": [ 10.280207, 63.253031 ] } },
{ "type": "Feature", "properties": { "stop_name": "Hofstad næringspark", "stop_desc": null, "wheelchair_boarding": null, "vehicle_type": 700, "bus_lines": "340, 440, 5004" }, "geometry": { "type": "Point", "coordinates": [ 10.280467, 63.253133 ] } },
{ "type": "Feature", "properties": { "stop_name": "Rognheim", "stop_desc": null, "wheelchair_boarding": null, "vehicle_type": 900, "bus_lines": "9" }, "geometry": { "type": "Point", "coordinates": [ 10.372888, 63.399386 ] } },
{ "type": "Feature", "properties": { "stop_name": "Rognheim", "stop_desc": null, "wheelchair_boarding": null, "vehicle_type": 900, "bus_lines": "9" }, "geometry": { "type": "Point", "coordinates": [ 10.373459, 63.399425 ] } },
{ "type": "Feature", "properties": { "stop_name": "Tronset", "stop_desc": null, "wheelchair_boarding": null, "vehicle_type": 700, "bus_lines": "5300" }, "geometry": { "type": "Point", "coordinates": [ 11.107384, 63.189792 ] } },
{ "type": "Feature", "properties": { "stop_name": "Tronset", "stop_desc": null, "wheelchair_boarding": null, "vehicle_type": 700, "bus_lines": "5300" }, "geometry": { "type": "Point", "coordinates": [ 11.108294, 63.189866 ] } },
{ "type": "Feature", "properties": { "stop_name": "Tronsetås", "stop_desc": null, "wheelchair_boarding": null, "vehicle_type": 700, "bus_lines": "5300" }, "geometry": { "type": "Point", "coordinates": [ 11.087788, 63.191831 ] } },
{ "type": "Feature", "properties": { "stop_name": "Tronsetås", "stop_desc": null, "wheelchair_boarding": null, "vehicle_type": 700, "bus_lines": "5300" }, "geometry": { "type": "Point", "coordinates": [ 11.088255, 63.191776 ] } },
{ "type": "Feature", "properties": { "stop_name": "Rolset", "stop_desc": null, "wheelchair_boarding": null, "vehicle_type": 700, "bus_lines": "430, 535" }, "geometry": { "type": "Point", "coordinates": [ 11.184146, 63.189524 ] } },
{ "type": "Feature", "properties": { "stop_name": "Rolset", "stop_desc": null, "wheelchair_boarding": null, "vehicle_type": 700, "bus_lines": "430, 535" }, "geometry": { "type": "Point", "coordinates": [ 11.18412, 63.189632 ] } },
{ "type": "Feature", "properties": { "stop_name": "Romolslia", "stop_desc": null, "wheelchair_boarding": null, "vehicle_type": 700, "bus_lines": "109, 72" }, "geometry": { "type": "Point", "coordinates": [ 10.368245, 63.379509 ] } },
{ "type": "Feature", "properties": { "stop_name": "Romolslia", "stop_desc": null, "wheelchair_boarding": null, "vehicle_type": 700, "bus_lines": "72" }, "geometry": { "type": "Point", "coordinates": [ 10.369297, 63.379914 ] } },
{ "type": "Feature", "properties": { "stop_name": "Romolslia nedre", "stop_desc": null, "wheelchair_boarding": null, "vehicle_type": 700, "bus_lines": "20, 72" }, "geometry": { "type": "Point", "coordinates": [ 10.369255, 63.381813 ] } },
{ "type": "Feature", "properties": { "stop_name": "Romolslia nedre", "stop_desc": null, "wheelchair_boarding": null, "vehicle_type": 700, "bus_lines": "20, 72" }, "geometry": { "type": "Point", "coordinates": [ 10.368921, 63.381943 ] } },
{ "type": "Feature", "properties": { "stop_name": "Tråssåvika", "stop_desc": null, "wheelchair_boarding": null, "vehicle_type": 700, "bus_lines": "410, 4101, 5107" }, "geometry": { "type": "Point", "coordinates": [ 9.96571, 63.347413 ] } },
{ "type": "Feature", "properties": { "stop_name": "Tråssåvika", "stop_desc": null, "wheelchair_boarding": null, "vehicle_type": 700, "bus_lines": "410, 5107" }, "geometry": { "type": "Point", "coordinates": [ 9.96601, 63.347402 ] } },
{ "type": "Feature", "properties": { "stop_name": "Romolslia øvre", "stop_desc": null, "wheelchair_boarding": null, "vehicle_type": 700, "bus_lines": "20, 72" }, "geometry": { "type": "Point", "coordinates": [ 10.362715, 63.377043 ] } },
{ "type": "Feature", "properties": { "stop_name": "Trøndelag Folkemuseum", "stop_desc": null, "wheelchair_boarding": null, "vehicle_type": 700, "bus_lines": "18, 50" }, "geometry": { "type": "Point", "coordinates": [ 10.356717, 63.421481 ] } },
{ "type": "Feature", "properties": { "stop_name": "Trøndelag Folkemuseum", "stop_desc": null, "wheelchair_boarding": null, "vehicle_type": 700, "bus_lines": "108, 18, 50" }, "geometry": { "type": "Point", "coordinates": [ 10.356012, 63.420943 ] } },
{ "type": "Feature", "properties": { "stop_name": "Rosmælen skole", "stop_desc": null, "wheelchair_boarding": null, "vehicle_type": 700, "bus_lines": "340, 5004, 5006" }, "geometry": { "type": "Point", "coordinates": [ 10.274385, 63.22639 ] } },
{ "type": "Feature", "properties": { "stop_name": "Rosmælen skole", "stop_desc": null, "wheelchair_boarding": null, "vehicle_type": 700, "bus_lines": "340, 5004, 5006" }, "geometry": { "type": "Point", "coordinates": [ 10.274376, 63.226428 ] } },
{ "type": "Feature", "properties": { "stop_name": "Trøndertun", "stop_desc": null, "wheelchair_boarding": null, "vehicle_type": 700, "bus_lines": "110, 82" }, "geometry": { "type": "Point", "coordinates": [ 10.248992, 63.276607 ] } },
{ "type": "Feature", "properties": { "stop_name": "Trøndertun", "stop_desc": null, "wheelchair_boarding": null, "vehicle_type": 700, "bus_lines": "82" }, "geometry": { "type": "Point", "coordinates": [ 10.250681, 63.277615 ] } },
{ "type": "Feature", "properties": { "stop_name": "Rosten", "stop_desc": null, "wheelchair_boarding": null, "vehicle_type": 700, "bus_lines": "109" }, "geometry": { "type": "Point", "coordinates": [ 10.362672, 63.362308 ] } },
{ "type": "Feature", "properties": { "stop_name": "Trøveien", "stop_desc": null, "wheelchair_boarding": null, "vehicle_type": 700, "bus_lines": "5002, 5109, 515" }, "geometry": { "type": "Point", "coordinates": [ 10.154143, 63.302826 ] } },
{ "type": "Feature", "properties": { "stop_name": "Trøveien", "stop_desc": null, "wheelchair_boarding": null, "vehicle_type": 700, "bus_lines": "5002, 5109, 515" }, "geometry": { "type": "Point", "coordinates": [ 10.15428, 63.303062 ] } },
{ "type": "Feature", "properties": { "stop_name": "Rostengrenda", "stop_desc": null, "wheelchair_boarding": null, "vehicle_type": 700, "bus_lines": "1, 111, 15, 18, 45, 51, 53, 54, 71" }, "geometry": { "type": "Point", "coordinates": [ 10.381981, 63.365978 ] } },
{ "type": "Feature", "properties": { "stop_name": "Rostengrenda", "stop_desc": null, "wheelchair_boarding": null, "vehicle_type": 700, "bus_lines": "1, 15, 18, 45, 51, 71" }, "geometry": { "type": "Point", "coordinates": [ 10.382018, 63.365245 ] } },
{ "type": "Feature", "properties": { "stop_name": "Tulluan nord", "stop_desc": null, "wheelchair_boarding": null, "vehicle_type": 700, "bus_lines": "214, 83" }, "geometry": { "type": "Point", "coordinates": [ 10.438129, 63.293148 ] } },
{ "type": "Feature", "properties": { "stop_name": "Rota", "stop_desc": null, "wheelchair_boarding": null, "vehicle_type": 700, "bus_lines": "80" }, "geometry": { "type": "Point", "coordinates": [ 10.528738, 63.395947 ] } },
{ "type": "Feature", "properties": { "stop_name": "Rota", "stop_desc": null, "wheelchair_boarding": null, "vehicle_type": 700, "bus_lines": "80" }, "geometry": { "type": "Point", "coordinates": [ 10.529191, 63.396024 ] } },
{ "type": "Feature", "properties": { "stop_name": "Tulluan skole", "stop_desc": null, "wheelchair_boarding": null, "vehicle_type": 700, "bus_lines": "214, 83" }, "geometry": { "type": "Point", "coordinates": [ 10.437961, 63.290816 ] } },
{ "type": "Feature", "properties": { "stop_name": "Tulluan skole", "stop_desc": null, "wheelchair_boarding": null, "vehicle_type": 700, "bus_lines": "214, 83" }, "geometry": { "type": "Point", "coordinates": [ 10.437567, 63.290558 ] } },
{ "type": "Feature", "properties": { "stop_name": "Rota", "stop_desc": null, "wheelchair_boarding": null, "vehicle_type": 700, "bus_lines": "70" }, "geometry": { "type": "Point", "coordinates": [ 10.760567, 63.43153 ] } },
{ "type": "Feature", "properties": { "stop_name": "Rota", "stop_desc": null, "wheelchair_boarding": null, "vehicle_type": 700, "bus_lines": "116, 205, 70" }, "geometry": { "type": "Point", "coordinates": [ 10.760832, 63.431348 ] } },
{ "type": "Feature", "properties": { "stop_name": "Rotla bru", "stop_desc": null, "wheelchair_boarding": null, "vehicle_type": 700, "bus_lines": "430, 535" }, "geometry": { "type": "Point", "coordinates": [ 11.189693, 63.183834 ] } },
{ "type": "Feature", "properties": { "stop_name": "Rotla bru", "stop_desc": null, "wheelchair_boarding": null, "vehicle_type": 700, "bus_lines": "430, 535" }, "geometry": { "type": "Point", "coordinates": [ 11.190098, 63.183799 ] } },
{ "type": "Feature", "properties": { "stop_name": "Tulluan syd", "stop_desc": null, "wheelchair_boarding": null, "vehicle_type": 700, "bus_lines": "214, 83" }, "geometry": { "type": "Point", "coordinates": [ 10.436317, 63.288556 ] } },
{ "type": "Feature", "properties": { "stop_name": "Tulluan syd", "stop_desc": null, "wheelchair_boarding": null, "vehicle_type": 700, "bus_lines": "214, 83" }, "geometry": { "type": "Point", "coordinates": [ 10.436172, 63.288594 ] } },
{ "type": "Feature", "properties": { "stop_name": "Trondheim fengsel", "stop_desc": null, "wheelchair_boarding": null, "vehicle_type": 700, "bus_lines": "10, 113, 15" }, "geometry": { "type": "Point", "coordinates": [ 10.471113, 63.421276 ] } },
{ "type": "Feature", "properties": { "stop_name": "Trondheim fengsel", "stop_desc": null, "wheelchair_boarding": null, "vehicle_type": 700, "bus_lines": "10, 15" }, "geometry": { "type": "Point", "coordinates": [ 10.471724, 63.421844 ] } },
{ "type": "Feature", "properties": { "stop_name": "Holten", "stop_desc": null, "wheelchair_boarding": null, "vehicle_type": 700, "bus_lines": "73" }, "geometry": { "type": "Point", "coordinates": [ 10.500172, 63.320027 ] } },
{ "type": "Feature", "properties": { "stop_name": "Holten", "stop_desc": null, "wheelchair_boarding": null, "vehicle_type": 700, "bus_lines": "73" }, "geometry": { "type": "Point", "coordinates": [ 10.500333, 63.320004 ] } },
{ "type": "Feature", "properties": { "stop_name": "Rotvoll", "stop_desc": null, "wheelchair_boarding": null, "vehicle_type": 700, "bus_lines": "20, 54" }, "geometry": { "type": "Point", "coordinates": [ 10.484229, 63.435011 ] } },
{ "type": "Feature", "properties": { "stop_name": "Rotvoll", "stop_desc": null, "wheelchair_boarding": null, "vehicle_type": 700, "bus_lines": "106, 20" }, "geometry": { "type": "Point", "coordinates": [ 10.483395, 63.434888 ] } },
{ "type": "Feature", "properties": { "stop_name": "Hommelvik bomstasjon", "stop_desc": null, "wheelchair_boarding": null, "vehicle_type": 700, "bus_lines": "311, 430" }, "geometry": { "type": "Point", "coordinates": [ 10.820388, 63.413242 ] } },
{ "type": "Feature", "properties": { "stop_name": "Hommelvik bomstasjon", "stop_desc": null, "wheelchair_boarding": null, "vehicle_type": 700, "bus_lines": "311, 430" }, "geometry": { "type": "Point", "coordinates": [ 10.821587, 63.413117 ] } },
{ "type": "Feature", "properties": { "stop_name": "Tungavegen", "stop_desc": null, "wheelchair_boarding": null, "vehicle_type": 700, "bus_lines": "18" }, "geometry": { "type": "Point", "coordinates": [ 10.313877, 63.416742 ] } },
{ "type": "Feature", "properties": { "stop_name": "Hommelvik sjøside", "stop_desc": null, "wheelchair_boarding": null, "vehicle_type": 700, "bus_lines": "86" }, "geometry": { "type": "Point", "coordinates": [ 10.806478, 63.415336 ] } },
{ "type": "Feature", "properties": { "stop_name": "Hommelvik sjøside", "stop_desc": null, "wheelchair_boarding": null, "vehicle_type": 700, "bus_lines": "86" }, "geometry": { "type": "Point", "coordinates": [ 10.806778, 63.415345 ] } },
{ "type": "Feature", "properties": { "stop_name": "Østre Lund", "stop_desc": "Ligger i Ringvålvegen fra sentrum", "wheelchair_boarding": null, "vehicle_type": 700, "bus_lines": "46, 78" }, "geometry": { "type": "Point", "coordinates": [ 10.331807, 63.350947 ] } },
{ "type": "Feature", "properties": { "stop_name": "Østre Lund", "stop_desc": "Ligger i Ringvollvegen mot sentrum", "wheelchair_boarding": null, "vehicle_type": 700, "bus_lines": "217, 46, 52, 53, 78" }, "geometry": { "type": "Point", "coordinates": [ 10.332491, 63.350985 ] } },
{ "type": "Feature", "properties": { "stop_name": "Hommelvik skole", "stop_desc": null, "wheelchair_boarding": null, "vehicle_type": 700, "bus_lines": "203, 206, 70" }, "geometry": { "type": "Point", "coordinates": [ 10.805823, 63.412871 ] } },
{ "type": "Feature", "properties": { "stop_name": "Hommelvik skole", "stop_desc": null, "wheelchair_boarding": null, "vehicle_type": 700, "bus_lines": "203, 204, 206, 86" }, "geometry": { "type": "Point", "coordinates": [ 10.805839, 63.412967 ] } },
{ "type": "Feature", "properties": { "stop_name": "Rydland", "stop_desc": null, "wheelchair_boarding": null, "vehicle_type": 700, "bus_lines": "73" }, "geometry": { "type": "Point", "coordinates": [ 10.487373, 63.302355 ] } },
{ "type": "Feature", "properties": { "stop_name": "Tunvegen", "stop_desc": null, "wheelchair_boarding": null, "vehicle_type": 700, "bus_lines": "14, 70" }, "geometry": { "type": "Point", "coordinates": [ 10.484243, 63.42411 ] } },
{ "type": "Feature", "properties": { "stop_name": "Tunvegen", "stop_desc": null, "wheelchair_boarding": null, "vehicle_type": 700, "bus_lines": "102, 14" }, "geometry": { "type": "Point", "coordinates": [ 10.484401, 63.424177 ] } },
{ "type": "Feature", "properties": { "stop_name": "Hommelvik stasjon", "stop_desc": null, "wheelchair_boarding": null, "vehicle_type": 700, "bus_lines": "116, 204, 205, 70, 85, 86" }, "geometry": { "type": "Point", "coordinates": [ 10.794853, 63.411429 ] } },
{ "type": "Feature", "properties": { "stop_name": "Hommelvik stasjon", "stop_desc": null, "wheelchair_boarding": null, "vehicle_type": 700, "bus_lines": "204, 70, 85, 86" }, "geometry": { "type": "Point", "coordinates": [ 10.794381, 63.41147 ] } },
{ "type": "Feature", "properties": { "stop_name": "Rydningen", "stop_desc": null, "wheelchair_boarding": null, "vehicle_type": 700, "bus_lines": "105, 42" }, "geometry": { "type": "Point", "coordinates": [ 10.353351, 63.388279 ] } },
{ "type": "Feature", "properties": { "stop_name": "Rydningen", "stop_desc": null, "wheelchair_boarding": null, "vehicle_type": 700, "bus_lines": "42" }, "geometry": { "type": "Point", "coordinates": [ 10.353936, 63.38817 ] } },
{ "type": "Feature", "properties": { "stop_name": "Rye", "stop_desc": null, "wheelchair_boarding": null, "vehicle_type": 700, "bus_lines": "208, 212, 76" }, "geometry": { "type": "Point", "coordinates": [ 10.149959, 63.424769 ] } },
{ "type": "Feature", "properties": { "stop_name": "Rye", "stop_desc": null, "wheelchair_boarding": null, "vehicle_type": 700, "bus_lines": "114, 208, 76" }, "geometry": { "type": "Point", "coordinates": [ 10.150219, 63.424848 ] } },
{ "type": "Feature", "properties": { "stop_name": "Hommelvik ungdomsskole", "stop_desc": null, "wheelchair_boarding": null, "vehicle_type": 700, "bus_lines": "203, 204, 206, 70, 86" }, "geometry": { "type": "Point", "coordinates": [ 10.800886, 63.410162 ] } },
{ "type": "Feature", "properties": { "stop_name": "Rye skole", "stop_desc": null, "wheelchair_boarding": null, "vehicle_type": 700, "bus_lines": "212, 75, 76" }, "geometry": { "type": "Point", "coordinates": [ 10.147229, 63.419077 ] } },